city,latitude,longitude,country,citycode,density,timezone
Saint-Oblas,45.5674,5.0447,France,FR-ARA,120.3,Europe/Paris
Louresse,47.2393,-0.3134,France,FR-R,40.7,Europe/Paris
Olmet,44.9542,2.6108,France,FR-ARA,69.2,Europe/Paris
Olmet,45.7099,3.6615,France,FR-ARA,8.9,Europe/Paris
Gottenhouse,48.7211,7.3621,France,FR-GES,329.4,Europe/Paris
Bergues,50.9688,2.4324,France,FR-HDF,2630.4,Europe/Paris
Villelongue,45.8647,2.8817,France,FR-ARA,30.7,Europe/Paris
Saint-Martin-d’Arrossa,43.2378,-1.313,France,FR-NAQ,25.7,Europe/Paris
Marre,49.2101,5.3008,France,FR-GES,18.1,Europe/Paris
Neuve-Maison,49.9309,4.0326,France,FR-HDF,74.7,Europe/Paris
Housseras,48.3109,6.7098,France,FR-GES,24.5,Europe/Paris
Charmes,46.0752,3.2521,France,FR-ARA,47.5,Europe/Paris
La Bastide-des-Fons,43.8326,3.2055,France,FR-OCC,4.3,Europe/Paris
Fomerey,48.2203,6.3393,France,FR-GES,35.1,Europe/Paris
Le Suchois,47.6231,3.4614,France,FR-BFC,22.2,Europe/Paris
Vandelainville,49.0171,5.9768,France,FR-GES,82.6,Europe/Paris
Soumensac,44.69,0.3269,France,FR-NAQ,23.8,Europe/Paris
Saint-Amand-le-Petit,45.7754,1.751,France,FR-NAQ,6.3,Europe/Paris
Caldaja,41.5861,9.3009,France,FR-H,68.1,Europe/Paris
Nizan-Gesse,43.2335,0.5975,France,FR-OCC,10,Europe/Paris
Oberdorff,49.2738,6.5925,France,FR-GES,81.7,Europe/Paris
Bocca di l’Oru,41.5462,9.2852,France,FR-H,68.1,Europe/Paris
Les Mottes,49.6636,0.7811,France,FR-NOR,73.1,Europe/Paris
Montheries,48.1677,4.9093,France,FR-GES,4.6,Europe/Paris
Reux,49.2763,0.1562,France,FR-NOR,55.7,Europe/Paris
Keranfubu,48.4748,-3.2661,France,FR-E,30.1,Europe/Paris
La Colle-sur-Loup,43.6865,7.1038,France,FR-U,846.3,Europe/Paris
Chambley,49.0485,5.8984,France,FR-GES,37.9,Europe/Paris
Le Mas du Bourg,45.5548,-0.0983,France,FR-NAQ,33.7,Europe/Paris
La Bastide-de-Besplas,43.1663,1.2752,France,FR-OCC,42.2,Europe/Paris
Calasima,42.3328,8.9519,France,FR-H,2.6,Europe/Paris
Coutras,45.0407,-0.1289,France,FR-NAQ,254.6,Europe/Paris
Condat,45.3408,2.7566,France,FR-ARA,21.8,Europe/Paris
Condat,45.3438,3.6009,France,FR-ARA,6.5,Europe/Paris
Marly,50.3456,3.5496,France,FR-HDF,1488.9,Europe/Paris
Roya,44.1833,6.9333,France,FR-U,8.3,Europe/Paris
Sainte-Pience,48.7588,-1.3003,France,FR-NOR,37.7,Europe/Paris
Verne,45.1686,4.2537,France,FR-ARA,53.6,Europe/Paris
Verne,46.5216,2.9798,France,FR-ARA,13,Europe/Paris
Musigny,47.1629,4.52,France,FR-BFC,12.4,Europe/Paris
Braslou,47.0002,0.3923,France,FR-F,21.2,Europe/Paris
Le Mage,48.5508,1.2931,France,FR-F,29.6,Europe/Paris
Velogny,47.4038,4.4627,France,FR-BFC,11.8,Europe/Paris
Aguts,43.5305,1.9204,France,FR-OCC,28.8,Europe/Paris
Maulnes,47.8928,4.2213,France,FR-BFC,3.8,Europe/Paris
Bunus,43.2098,-1.0694,France,FR-NAQ,24.5,Europe/Paris
Brétigny,49.2146,0.6783,France,FR-NOR,35.5,Europe/Paris
Brétigny,49.9178,1.3215,France,FR-NOR,30.3,Europe/Paris
Les Arnoux,46.6898,3.481,France,FR-BFC,18.7,Europe/Paris
La Villeneuve,45.1738,4.8906,France,FR-ARA,99.7,Europe/Paris
Ainac,44.2167,6.2,France,FR-U,5.1,Europe/Paris
Château-Gontier,47.8287,-0.7027,France,FR-R,421.3,Europe/Paris
Les Passerats,48.0303,2.8932,France,FR-F,64.5,Europe/Paris
Saint-Martin-Plage,49.968,1.2033,France,FR-NOR,219.1,Europe/Paris
Manin,50.2977,2.5116,France,FR-HDF,40.8,Europe/Paris
Laas,43.4689,0.3109,France,FR-OCC,28.4,Europe/Paris
Bazoches-les-Gallerandes,48.1654,2.0432,France,FR-F,40,Europe/Paris
Novella,42.5846,9.1172,France,FR-H,3.5,Europe/Paris
Clairefontaine,48.6127,1.9129,France,FR-J,44.3,Europe/Paris
Chênedouit,48.7593,-0.3419,France,FR-NOR,19.9,Europe/Paris
Récicourt,49.1412,5.157,France,FR-GES,12.2,Europe/Paris
Plassac,45.1041,-0.6471,France,FR-NAQ,110.6,Europe/Paris
Plassac,45.4668,-0.5683,France,FR-NAQ,72.3,Europe/Paris
Plassac,45.5264,0.0645,France,FR-NAQ,31.2,Europe/Paris
Le Vernay,44.9702,5.6081,France,FR-ARA,49.4,Europe/Paris
Dessenheim,47.9777,7.4889,France,FR-GES,67.3,Europe/Paris
Soisy-sur-Seine,48.6488,2.4522,France,FR-J,820.9,Europe/Paris
Saint-Pardoux-de-Mareuil,45.4356,0.4449,France,FR-NAQ,44.5,Europe/Paris
Touille,43.08,0.9736,France,FR-OCC,48.7,Europe/Paris
Croisette,50.3548,2.2604,France,FR-HDF,40.9,Europe/Paris
Les Garots,46.5662,2.9591,France,FR-ARA,13.9,Europe/Paris
Landricourt,48.6165,4.8106,France,FR-GES,24.1,Europe/Paris
Mouton,45.8913,0.2426,France,FR-NAQ,25.5,Europe/Paris
Mauny,49.3842,0.8848,France,FR-NOR,19.8,Europe/Paris
Mérignas,44.7845,-0.0872,France,FR-NAQ,30.3,Europe/Paris
Les Moulins,44.9817,4.0553,France,FR-ARA,40.8,Europe/Paris
Les Moulins,45.104,4.2228,France,FR-ARA,29,Europe/Paris
Les Moulins,44.7672,5.7243,France,FR-ARA,10.8,Europe/Paris
Nogent-le-Bas,48.0197,5.3332,France,FR-GES,68.2,Europe/Paris
Le Buat,48.6344,-1.1739,France,FR-NOR,45.9,Europe/Paris
Saizenay,46.9626,5.9149,France,FR-BFC,26.9,Europe/Paris
Collonges-au-Mont-d’Or,45.8239,4.8402,France,FR-ARA,1087.4,Europe/Paris
Viâpres-le-Petit,48.5633,4.0427,France,FR-GES,12.3,Europe/Paris
Machy,48.1383,4.0477,France,FR-GES,35.8,Europe/Paris
Les Adoux,46.0167,1.4833,France,FR-NAQ,53.2,Europe/Paris
Auch,43.6465,0.5855,France,FR-OCC,294.9,Europe/Paris
La Barantonnerie,48.6833,1.85,France,FR-J,539.6,Europe/Paris
Sabaillan,43.4424,0.8115,France,FR-OCC,14.3,Europe/Paris
Villeneuve-sur-Bellot,48.862,3.3414,France,FR-J,129.6,Europe/Paris
Verlans,47.5716,6.719,France,FR-BFC,188.3,Europe/Paris
Goutte-des-Saints,46.5819,2.3958,France,FR-F,5.3,Europe/Paris
Sarcenas,45.2736,5.758,France,FR-ARA,36.9,Europe/Paris
Sarcenas,45.2102,4.3867,France,FR-ARA,23.4,Europe/Paris
Bonnebosq,49.2035,0.0779,France,FR-NOR,60.3,Europe/Paris
Lisle-en-Barrois,48.8965,5.1256,France,FR-GES,1.3,Europe/Paris
La Planche de Gourdon,44.7315,4.4482,France,FR-ARA,7.9,Europe/Paris
La Ribeyrie,44.8885,0.5506,France,FR-NAQ,90.2,Europe/Paris
Châtres-la-Forêt,48.1333,-0.4305,France,FR-R,64.3,Europe/Paris
La Caillère,45.7529,0.3394,France,FR-NAQ,88.9,Europe/Paris
Tornay,47.7002,5.6063,France,FR-GES,4.6,Europe/Paris
Bailly,49.4957,2.9697,France,FR-HDF,158.7,Europe/Paris
Arengosse,44.0031,-0.7881,France,FR-NAQ,11.6,Europe/Paris
Montremont,45.8581,6.2801,France,FR-ARA,121.7,Europe/Paris
Quellenec,48.0167,-4.0333,France,FR-E,215.3,Europe/Paris
Bois-Champ-Beau,48.3583,2.2228,France,FR-J,19.8,Europe/Paris
Kerydreuf-en-Plouhinec,48.039,-4.4813,France,FR-E,128.5,Europe/Paris
Kermaquer,48.6833,-3.6667,France,FR-E,173.9,Europe/Paris
Monségur,44.6506,0.0806,France,FR-NAQ,107.8,Europe/Paris
Monségur,43.4317,-0.0154,France,FR-NAQ,53.7,Europe/Paris
Monségur,44.4842,0.8796,France,FR-NAQ,33.1,Europe/Paris
Monségur,43.6048,-0.5421,France,FR-NAQ,22.5,Europe/Paris
Kerguec’h,47.3617,-3.2484,France,FR-E,38.6,Europe/Paris
L’Écaille,49.4168,4.212,France,FR-GES,26.9,Europe/Paris
Leffincourt,49.3873,4.5467,France,FR-GES,10.7,Europe/Paris
Bousignies-sur-Roc,50.2632,4.1821,France,FR-HDF,36.7,Europe/Paris
Mercenac,43.0405,1.0775,France,FR-OCC,32.2,Europe/Paris
Bas Bourg,48.1167,-0.9833,France,FR-R,244.6,Europe/Paris
Spelonca,42.1316,8.9774,France,FR-H,1.8,Europe/Paris
Le Port,42.8693,1.3725,France,FR-OCC,4.4,Europe/Paris
Bougès,44.3016,3.6931,France,FR-OCC,5.5,Europe/Paris
Fléré-la-Rivière,47.0201,1.1079,France,FR-F,24.3,Europe/Paris
Le Marais de Sin,50.3757,3.1193,France,FR-HDF,1571.7,Europe/Paris
Ricarville,49.6353,0.6073,France,FR-NOR,76,Europe/Paris
Le Passage,48.391,-4.3801,France,FR-E,285.2,Europe/Paris
Chourgnac,45.2365,1.0598,France,FR-NAQ,11.9,Europe/Paris
Berrogain,43.2518,-0.8545,France,FR-NAQ,27.1,Europe/Paris
Pont-Arcy,49.3945,3.6306,France,FR-HDF,39.7,Europe/Paris
Lanne,43.1646,0.014,France,FR-OCC,108.3,Europe/Paris
Écuillon,48.1186,1.7479,France,FR-F,13.3,Europe/Paris
Bienville,48.5758,5.0458,France,FR-GES,98.1,Europe/Paris
Montmort,48.9246,3.8093,France,FR-GES,19.7,Europe/Paris
Cliponville,49.6886,0.682,France,FR-NOR,73.9,Europe/Paris
Bretten,47.7013,7.0695,France,FR-GES,57.8,Europe/Paris
Saint-Marcel-lès-Annonay,45.2861,4.6262,France,FR-ARA,85,Europe/Paris
Vigneul-sous-Montmédy,49.5104,5.3333,France,FR-GES,23.4,Europe/Paris
Rodelle,44.4906,2.6265,France,FR-OCC,18.9,Europe/Paris
Vauciennes,49.05,3.8833,France,FR-GES,569.2,Europe/Paris
Tignécourt,48.0427,5.8927,France,FR-GES,5.9,Europe/Paris
Le Marot,48.0667,3.85,France,FR-GES,11.1,Europe/Paris
Bouconville,48.5944,1.4508,France,FR-F,33,Europe/Paris
Chêne-Bernard,46.9204,5.4808,France,FR-BFC,20.8,Europe/Paris
Infray,49.9838,1.6308,France,FR-HDF,46.6,Europe/Paris
Stas,48.18,2.0631,France,FR-F,40,Europe/Paris
Angé,47.3316,1.2447,France,FR-F,46.8,Europe/Paris
Toulon-sur-Allier,46.5177,3.3592,France,FR-ARA,29.3,Europe/Paris
La Bruguière,44.1113,4.4127,France,FR-OCC,23,Europe/Paris
Gourette,42.9667,-0.3333,France,FR-NAQ,5.2,Europe/Paris
Couëtreux,47.6005,-1.468,France,FR-R,48.3,Europe/Paris
Grasse,43.6667,6.9167,France,FR-U,1287.9,Europe/Paris
La Truchère,46.5162,4.9522,France,FR-BFC,41.7,Europe/Paris
Belleuse,49.7067,2.1162,France,FR-HDF,48,Europe/Paris
Brethenoux,45.8412,0.7824,France,FR-NAQ,37.6,Europe/Paris
Saint-Cirq,44.9256,0.9688,France,FR-NAQ,17.8,Europe/Paris
Arraggio,41.6444,9.2665,France,FR-H,36.6,Europe/Paris
Stuckange,49.3266,6.2381,France,FR-GES,285.8,Europe/Paris
Saint-Germain-sur-Sèves,49.2221,-1.3694,France,FR-NOR,22,Europe/Paris
La Pomelie,45.3499,1.1807,France,FR-NAQ,17.8,Europe/Paris
La Boissière,48.7718,1.9811,France,FR-J,2198.4,Europe/Paris
La Boissière,47.9203,-3.9028,France,FR-E,461.5,Europe/Paris
La Boissière,47.95,-1.6333,France,FR-E,107.3,Europe/Paris
La Boissière,48.0187,-4.2518,France,FR-E,91.8,Europe/Paris
La Croix de Chenoise,48.6134,3.1797,France,FR-J,36.4,Europe/Paris
La Boissière,48.1748,1.849,France,FR-F,19.9,Europe/Paris
Villerajouze,46.0117,1.0068,France,FR-NAQ,12.2,Europe/Paris
Maltaverne,47.9994,2.7855,France,FR-F,284.8,Europe/Paris
Fey-en-Haye,48.903,5.9612,France,FR-GES,10.7,Europe/Paris
Saint-Huret,46.5667,2.38,France,FR-F,5.3,Europe/Paris
Triac,45.6774,-0.1163,France,FR-NAQ,75.6,Europe/Paris
Roquelaure,43.7196,0.5793,France,FR-OCC,28.7,Europe/Paris
Le Mesnil-Rainfray,48.6669,-1.0568,France,FR-NOR,21.6,Europe/Paris
Chéry,47.1211,2.0461,France,FR-F,16.8,Europe/Paris
La Sabotterie,49.5461,4.6703,France,FR-GES,20,Europe/Paris
Peuplingues,50.9141,1.7651,France,FR-HDF,69.5,Europe/Paris
La Thibauderie,47.0474,2.57,France,FR-F,30.5,Europe/Paris
Ouerray,48.4315,1.4175,France,FR-F,92.7,Europe/Paris
Samson,47.0538,5.8789,France,FR-BFC,41.1,Europe/Paris
Boitron,48.5591,0.2602,France,FR-NOR,33.5,Europe/Paris
Loye-sur-Arnon,46.653,2.387,France,FR-F,8.9,Europe/Paris
Sainte-Honorine-la-Chardonnerette,49.2086,-0.274,France,FR-NOR,250.4,Europe/Paris
Notre-Dame-de-Monts,46.831,-2.1317,France,FR-R,96.3,Europe/Paris
Maurès,44.6901,0.804,France,FR-NAQ,19.6,Europe/Paris
Saint-Leau,48.0941,-2.6006,France,FR-E,26.9,Europe/Paris
Bosc-Édeline,49.5704,1.4263,France,FR-NOR,54.9,Europe/Paris
Cret d’Aiguilly,46.0727,4.1391,France,FR-ARA,57.7,Europe/Paris
La Pommeraye,47.3553,-0.8601,France,FR-R,106.1,Europe/Paris
Élancourt,48.7847,1.9589,France,FR-J,2672.8,Europe/Paris
Glasenberg,49.0308,7.3641,France,FR-GES,96.6,Europe/Paris
Pierrefitte-sur-Sauldre,47.5125,2.1503,France,FR-F,11.3,Europe/Paris
Kervalet,47.2797,-2.4601,France,FR-R,524.7,Europe/Paris
Morteaux-Couliboeuf,48.9248,-0.0685,France,FR-NOR,46.5,Europe/Paris
La Sibotière,48.4973,0.8715,France,FR-NOR,11.8,Europe/Paris
Les Riceys,47.9939,4.3699,France,FR-GES,30.6,Europe/Paris
Le Vial,45.2333,5.3167,France,FR-ARA,49.9,Europe/Paris
Bugnières,47.9432,5.1017,France,FR-GES,9.2,Europe/Paris
Jola,42.068,9.2742,France,FR-H,5.4,Europe/Paris
Floyon,50.0422,3.8867,France,FR-HDF,29,Europe/Paris
Les Mazières,46.1596,2.7407,France,FR-ARA,14.5,Europe/Paris
Chamadelle,45.1035,-0.0768,France,FR-NAQ,47.1,Europe/Paris
Bosmont-sur-Serre,49.7318,3.8587,France,FR-HDF,22.3,Europe/Paris
Champcenest,48.6711,3.2821,France,FR-J,11,Europe/Paris
Blis-et-Born,45.1813,0.9064,France,FR-NAQ,23.5,Europe/Paris
Arganchy,49.2374,-0.737,France,FR-NOR,34.7,Europe/Paris
Proveysieux,45.2603,5.6971,France,FR-ARA,27,Europe/Paris
Espagnac,44.5927,1.8403,France,FR-OCC,11.1,Europe/Paris
Saint-Outrille,47.1438,1.8408,France,FR-F,24,Europe/Paris
Erckartswiller,48.8761,7.3646,France,FR-GES,31.3,Europe/Paris
Calvignac,44.4643,1.7787,France,FR-OCC,11.7,Europe/Paris
Kindwiller,48.8625,7.597,France,FR-GES,112.9,Europe/Paris
La Mazière-aux-Bons-Hommes,45.8836,2.4408,France,FR-NAQ,6.1,Europe/Paris
Revigny-sur-Ornain,48.8302,4.9856,France,FR-GES,147.6,Europe/Paris
Farges-lès-Mâcon,46.5116,4.9014,France,FR-BFC,36.6,Europe/Paris
Verneuil-Moustiers,46.34,1.135,France,FR-NAQ,8.2,Europe/Paris
Balschwiller,47.671,7.1691,France,FR-GES,86.5,Europe/Paris
L’Isle-sur-Serein,47.5884,4.0045,France,FR-BFC,141.9,Europe/Paris
Belmont-d’Azergues,45.8683,4.6698,France,FR-ARA,389.6,Europe/Paris
Saint-Lumine-de-Clisson,47.0828,-1.3372,France,FR-R,129.5,Europe/Paris
Saint-Lamain,46.7953,5.6021,France,FR-BFC,26.5,Europe/Paris
Blainville-Crevon,49.504,1.2995,France,FR-NOR,76.3,Europe/Paris
Quérénaing,50.2864,3.5132,France,FR-HDF,237.1,Europe/Paris
Saint-Joseph-de-Rivière,45.3757,5.6964,France,FR-ARA,67,Europe/Paris
Fontvieille,43.3228,5.4926,France,FR-U,366.3,Europe/Paris
Fontvieille,43.7267,4.7079,France,FR-U,101.1,Europe/Paris
Élise,49.0456,4.8672,France,FR-GES,7,Europe/Paris
Besse,45.367,3.2778,France,FR-ARA,122.8,Europe/Paris
Besse,45.2448,3.9891,France,FR-ARA,30.2,Europe/Paris
Besse,45.0961,2.3493,France,FR-ARA,30,Europe/Paris
Besse,45.072,6.1707,France,FR-ARA,2.9,Europe/Paris
Besse,45.3027,3.1417,France,FR-ARA,2.8,Europe/Paris
Besse,45.3362,3.0595,France,FR-ARA,2.4,Europe/Paris
Malbosc,44.346,4.0727,France,FR-ARA,6.6,Europe/Paris
Crachier,45.5479,5.2246,France,FR-ARA,128.1,Europe/Paris
La Fraise,43.485,2.8986,France,FR-OCC,2.5,Europe/Paris
Guenviller,49.1065,6.7988,France,FR-GES,146.9,Europe/Paris
Le Don,46.774,1.4528,France,FR-F,11.9,Europe/Paris
Firfol,49.1541,0.3198,France,FR-NOR,91.3,Europe/Paris
Saint-Martin-de-Goyne,44.0036,0.5663,France,FR-OCC,19.4,Europe/Paris
Le Cosquer,48.3666,-4.5481,France,FR-E,2719,Europe/Paris
Le Cosquer,47.748,-3.3317,France,FR-E,1348.1,Europe/Paris
Verneuil,46.8606,3.5588,France,FR-BFC,12.2,Europe/Paris
Ribeauville,50.0429,3.5854,France,FR-HDF,33.8,Europe/Paris
Le Muratel,45.7049,2.6417,France,FR-ARA,7.2,Europe/Paris
Bourdeilles,45.3219,0.5862,France,FR-NAQ,32.6,Europe/Paris
Goetzenbruck,48.9778,7.3796,France,FR-GES,203.2,Europe/Paris
Eyrayas,45.2058,3.8655,France,FR-ARA,35.6,Europe/Paris
Le Boisgeloup,49.258,1.7807,France,FR-NOR,724.2,Europe/Paris
Saint-Pompain,46.4411,-0.6001,France,FR-NAQ,40,Europe/Paris
Besneville,49.3677,-1.6273,France,FR-NOR,42,Europe/Paris
Sécheras,45.13,4.7703,France,FR-ARA,84.3,Europe/Paris
Mornex,46.1649,6.2378,France,FR-ARA,246.1,Europe/Paris
Viel,44.9991,1.4931,France,FR-OCC,16.1,Europe/Paris
Saint-Abraham,47.8559,-2.4093,France,FR-E,92.6,Europe/Paris
Grugies,49.8122,3.2682,France,FR-HDF,220.6,Europe/Paris
Bonne Fontaine,47.1605,-1.3039,France,FR-R,160.4,Europe/Paris
Lomont-sur-Crête,47.3375,6.4307,France,FR-BFC,16.1,Europe/Paris
Auxon-Dessous,47.3,5.95,France,FR-BFC,214.9,Europe/Paris
Joiselle,48.7709,3.5154,France,FR-GES,8.7,Europe/Paris
Argentine,45.4724,0.3765,France,FR-NAQ,22.9,Europe/Paris
Argentine,46.8762,-0.1602,France,FR-NAQ,20.3,Europe/Paris
Coudray,47.7911,-0.644,France,FR-R,92.1,Europe/Paris
Sémeries,50.1198,3.9985,France,FR-HDF,37.9,Europe/Paris
Saint-Andrieux,49.5426,0.0922,France,FR-NOR,290.5,Europe/Paris
Lullin,46.2849,6.5231,France,FR-ARA,73.6,Europe/Paris
Heyrieux,45.6319,5.0628,France,FR-ARA,373.6,Europe/Paris
Fouzilhon,43.5014,3.2449,France,FR-OCC,48,Europe/Paris
Saint-Vincent,47.9946,-3.2347,France,FR-E,15.6,Europe/Paris
Saint-Maurice-Montcouronne,48.5829,2.125,France,FR-J,207.1,Europe/Paris
Coudray,48.272,2.3679,France,FR-F,34.4,Europe/Paris
Coudray,48.6617,1.1948,France,FR-F,16.6,Europe/Paris
Loueuse,49.5969,1.8254,France,FR-HDF,22.3,Europe/Paris
Heiltz-le-Maurupt,48.7931,4.8144,France,FR-GES,24,Europe/Paris
Bornay,46.6132,5.5564,France,FR-BFC,25.4,Europe/Paris
Molleville,43.312,1.8337,France,FR-OCC,28.3,Europe/Paris
La Haute Combe,44.3497,6.2392,France,FR-U,2.3,Europe/Paris
Saint-Léopardin-d’Augy,46.683,3.1039,France,FR-ARA,9.5,Europe/Paris
Saint-Félix de Reillac,45.0197,0.9154,France,FR-NAQ,8.9,Europe/Paris
Vaubecourt,48.9344,5.1111,France,FR-GES,16.3,Europe/Paris
Le Grand Quesnay,49.6026,1.4822,France,FR-NOR,28.8,Europe/Paris
Saint-Inglevert,50.8754,1.7445,France,FR-HDF,132.4,Europe/Paris
Vic-sur-Seille,48.7819,6.5308,France,FR-GES,66.7,Europe/Paris
Mavilly-Mandelot,47.0486,4.7384,France,FR-BFC,20.2,Europe/Paris
Kerpourhant,48.1005,-3.3572,France,FR-E,19.8,Europe/Paris
Brandillon,45.2333,0.3167,France,FR-NAQ,185.2,Europe/Paris
Chaunac,45.3612,-0.36,France,FR-NAQ,43,Europe/Paris
Mackenheim,48.1842,7.5648,France,FR-GES,67.3,Europe/Paris
La Javelat,45.0167,4.5667,France,FR-ARA,11.9,Europe/Paris
Saint-Lyé,48.365,3.999,France,FR-GES,94.8,Europe/Paris
Le Mesnil-Hardray,48.9361,0.9905,France,FR-NOR,10.9,Europe/Paris
Montpeyroux,44.9198,0.0566,France,FR-NAQ,20.1,Europe/Paris
Saint-Étienne-de-Lisse,44.8797,-0.097,France,FR-NAQ,33,Europe/Paris
Cébazat,45.8314,3.0999,France,FR-ARA,739.7,Europe/Paris
Les Chalps,44.8667,6.8,France,FR-U,1.7,Europe/Paris
Drulhe,44.4622,2.1293,France,FR-OCC,22.1,Europe/Paris
Cusy,47.7658,4.1588,France,FR-BFC,47.8,Europe/Paris
Font-Romain,46.7424,2.2619,France,FR-F,9.7,Europe/Paris
Talmas,50.0305,2.3255,France,FR-HDF,59.3,Europe/Paris
Amanty,48.5187,5.6107,France,FR-GES,4.4,Europe/Paris
Chauvirey-le-Vieil,47.785,5.7561,France,FR-BFC,8.4,Europe/Paris
Sauvigny-le-Beuréal,47.4873,4.1089,France,FR-BFC,13.5,Europe/Paris
Les Bonnets,44.8607,5.3185,France,FR-ARA,2.5,Europe/Paris
Laizé,46.3949,4.8063,France,FR-BFC,125,Europe/Paris
Acheux-en-Vimeu,50.0652,1.6761,France,FR-HDF,41.8,Europe/Paris
Lure,47.6829,6.4966,France,FR-BFC,336.2,Europe/Paris
Mittelhausen,48.7096,7.6304,France,FR-GES,110,Europe/Paris
Mairé,46.8588,0.75,France,FR-NAQ,9.3,Europe/Paris
Total Haut,45.3,2.6167,France,FR-ARA,48.7,Europe/Paris
Onglas,45.8213,5.4825,France,FR-ARA,21.7,Europe/Paris
Soulanger,47.1956,-0.3038,France,FR-R,207.1,Europe/Paris
Rivières,45.7531,0.361,France,FR-NAQ,88.9,Europe/Paris
Saint-André-de-Sangonis,43.6497,3.5033,France,FR-OCC,311.6,Europe/Paris
Hoéville,48.707,6.4358,France,FR-GES,24.8,Europe/Paris
Marmont,44.0936,0.5841,France,FR-NAQ,21.6,Europe/Paris
Mézières-sur-Seine,48.9613,1.7925,France,FR-J,339,Europe/Paris
Mésangueville,49.5478,1.5585,France,FR-NOR,17.1,Europe/Paris
Le Roc,44.8663,1.4408,France,FR-OCC,36.1,Europe/Paris
Saint-Civran,46.4965,1.3905,France,FR-F,17,Europe/Paris
La Brûlée,47.0896,3.4822,France,FR-BFC,5.9,Europe/Paris
La Vacquerie,49.0925,-0.8588,France,FR-NOR,26.6,Europe/Paris
La Barriais,47.3108,-1.9482,France,FR-R,44.8,Europe/Paris
Présailles,44.9016,4.028,France,FR-ARA,6.9,Europe/Paris
Vellery,47.5233,3.3299,France,FR-BFC,15.5,Europe/Paris
Toury,48.4835,3.3651,France,FR-J,39.2,Europe/Paris
Pleaux,45.1348,2.2265,France,FR-ARA,16.1,Europe/Paris
Vavray-le-Petit,48.8064,4.7142,France,FR-GES,18.3,Europe/Paris
Guichards,44.846,0.5815,France,FR-NAQ,71,Europe/Paris
Toury,48.194,1.9348,France,FR-F,138.7,Europe/Paris
Toury,48.1356,2.744,France,FR-F,68.1,Europe/Paris
Trassoudaine,45.6226,1.7682,France,FR-NAQ,18.9,Europe/Paris
Aizecq,45.9921,0.2783,France,FR-NAQ,22.1,Europe/Paris
Boeurs-en-Othe,48.1383,3.7056,France,FR-BFC,15.7,Europe/Paris
Osny,49.0594,2.0618,France,FR-J,1376.1,Europe/Paris
Rubécourt-et-Lamécourt,49.6899,5.0214,France,FR-GES,37.5,Europe/Paris
Guigny,50.3302,1.9993,France,FR-HDF,49.2,Europe/Paris
Nassiet,43.6,-0.6787,France,FR-NAQ,31.4,Europe/Paris
Morlanne,43.5132,-0.5343,France,FR-NAQ,52.6,Europe/Paris
Sémerville,47.933,1.3789,France,FR-F,11.1,Europe/Paris
Béon,43.0352,-0.4183,France,FR-NAQ,15.6,Europe/Paris
Les Pénitiaux,47.3668,3.1973,France,FR-BFC,16.5,Europe/Paris
Bayon-sur-Gironde,45.0541,-0.5998,France,FR-NAQ,99.3,Europe/Paris
Friesenheim,48.3091,7.6711,France,FR-GES,62.9,Europe/Paris
Gicquel,48.6133,-2.8335,France,FR-E,509.8,Europe/Paris
Dargout,46.5502,2.226,France,FR-F,49.6,Europe/Paris
Boulleret,47.4242,2.8734,France,FR-F,41.7,Europe/Paris
Grury,46.6758,3.9106,France,FR-BFC,10.7,Europe/Paris
Laneuville-sur-Meuse,49.4929,5.162,France,FR-GES,27.6,Europe/Paris
Lusignan-Petit,44.2711,0.5243,France,FR-NAQ,51.4,Europe/Paris
Les Arpens,46.6184,2.634,France,FR-ARA,3.9,Europe/Paris
Bendejun,43.8363,7.2942,France,FR-U,235.1,Europe/Paris
Vignot,48.7749,5.6088,France,FR-GES,83.4,Europe/Paris
Montlieu-la-Garde,45.2451,-0.2557,France,FR-NAQ,42.7,Europe/Paris
Le Petit-Paris,48.6456,3.1202,France,FR-J,38.8,Europe/Paris
Wamin,50.4141,2.0597,France,FR-HDF,32.7,Europe/Paris
Wamin,50.2692,2.395,France,FR-HDF,29.8,Europe/Paris
Chemiré-le-Gaudin,47.9289,-0.0157,France,FR-R,41,Europe/Paris
Coiranne,45.5695,5.3462,France,FR-ARA,203.6,Europe/Paris
Corcelles,46.9965,3.0785,France,FR-BFC,194.1,Europe/Paris
Corcelles,47.5471,6.6147,France,FR-BFC,30.6,Europe/Paris
Corcelles,47.0295,4.5931,France,FR-BFC,11.3,Europe/Paris
La Ferté-sur-Chiers,49.5761,5.2462,France,FR-GES,43.5,Europe/Paris
Le Loquin,50.6163,2.0671,France,FR-HDF,32.9,Europe/Paris
La Soucheyre,44.9943,3.4414,France,FR-ARA,6.7,Europe/Paris
Jailliex,45.1284,1.1343,France,FR-NAQ,26.9,Europe/Paris
Chaux-des-Crotenay,46.6579,5.9667,France,FR-BFC,37.1,Europe/Paris
La Pierre,48.2974,2.0934,France,FR-F,30.4,Europe/Paris
La Pierre,46.8748,2.4484,France,FR-F,19.9,Europe/Paris
Coatéval,48.4718,-4.5237,France,FR-E,99.8,Europe/Paris
Ilhet,42.9641,0.3828,France,FR-OCC,16.8,Europe/Paris
Négrondes,45.3447,0.864,France,FR-NAQ,45.1,Europe/Paris
Belvis,42.8504,2.0749,France,FR-OCC,7.7,Europe/Paris
Les Sagnères,44.9667,6.4833,France,FR-U,8.6,Europe/Paris
Sentenac-de-Sérou,42.9717,1.3888,France,FR-OCC,2.6,Europe/Paris
Poitiers,46.58,0.34,France,FR-NAQ,2096.7,Europe/Paris
La Cresse,44.1777,3.1307,France,FR-OCC,25.3,Europe/Paris
Étable,46.3333,2.0833,France,FR-NAQ,15.3,Europe/Paris
Esnes,50.1009,3.3136,France,FR-HDF,45.3,Europe/Paris
La Doisnière,48.2304,-0.9003,France,FR-R,33.4,Europe/Paris
Puymaurin,43.3729,0.7648,France,FR-OCC,12.9,Europe/Paris
Clermont-les-Fermes,49.6677,3.9376,France,FR-HDF,12.7,Europe/Paris
Beaufin,44.7888,5.9608,France,FR-ARA,3.3,Europe/Paris
Baziège,43.4549,1.6139,France,FR-OCC,203,Europe/Paris
Tova,41.8596,9.2612,France,FR-H,7.4,Europe/Paris
Molac,47.7302,-2.435,France,FR-E,50.7,Europe/Paris
Marchelong,48.6622,3.1725,France,FR-J,38.1,Europe/Paris
Saint-Domet,46.0426,2.2999,France,FR-NAQ,10.9,Europe/Paris
Beaulon,46.6016,3.6731,France,FR-ARA,25.5,Europe/Paris
La Plesse,48.6661,1.1535,France,FR-F,15.3,Europe/Paris
Écouviez,49.5286,5.4598,France,FR-GES,120.9,Europe/Brussels
Druy-Parigny,46.8702,3.3666,France,FR-BFC,13.8,Europe/Paris
Saverne,48.7407,7.365,France,FR-GES,462.2,Europe/Paris
Béthelainville,49.1673,5.2348,France,FR-GES,16.6,Europe/Paris
Sainte-Marie-du-Mont,49.3789,-1.2255,France,FR-NOR,25.6,Europe/Paris
Bourisp,42.8286,0.3381,France,FR-OCC,87,Europe/Paris
Uzer,43.0789,0.1938,France,FR-OCC,31.8,Europe/Paris
Moireville,48.0658,1.4511,France,FR-F,16.3,Europe/Paris
Apcher,45.316,3.0284,France,FR-ARA,2.4,Europe/Paris
Noron-l’Abbaye,48.8945,-0.2499,France,FR-NOR,55.9,Europe/Paris
Plouëc-du-Trieux,48.6745,-3.1917,France,FR-E,59.8,Europe/Paris
Valtange,46.4714,3.103,France,FR-ARA,29.8,Europe/Paris
Dannevoux,49.3079,5.2365,France,FR-GES,14.3,Europe/Paris
Villerest,49.3104,1.4101,France,FR-NOR,61.6,Europe/Paris
Sainte-Juliette,44.2868,1.1697,France,FR-OCC,17.6,Europe/Paris
Hallignicourt,48.6438,4.8714,France,FR-GES,24.3,Europe/Paris
Les Grimardis,45.7276,3.602,France,FR-ARA,27.5,Europe/Paris
Cuinzier,46.1271,4.2677,France,FR-ARA,121.7,Europe/Paris
Chaux-des-Prés,46.5084,5.8675,France,FR-BFC,18.7,Europe/Paris
Saint-Corneille,48.0662,0.3436,France,FR-R,111.8,Europe/Paris
Bazouges sous Hédé,48.3134,-1.7712,France,FR-E,156.4,Europe/Paris
Saint-Jean-de-Lier,43.7898,-0.8785,France,FR-NAQ,48.7,Europe/Paris
Conflans-sur-Anille,47.9456,0.7449,France,FR-R,18,Europe/Paris
Paix,49.2689,1.4259,France,FR-NOR,192.1,Europe/Paris
Saint-Pardoult,45.9992,-0.4501,France,FR-NAQ,41.5,Europe/Paris
L’Eclache,45.7504,2.6924,France,FR-ARA,8,Europe/Paris
Coucy-le-Château-Auffrique,49.5208,3.3238,France,FR-HDF,95.8,Europe/Paris
La Brunie,44.81,2.3292,France,FR-ARA,17.6,Europe/Paris
Les Bruns,44.1171,5.2348,France,FR-U,38.4,Europe/Paris
Autrans,45.1761,5.5427,France,FR-ARA,39.9,Europe/Paris
Les Robins,45.0342,5.2524,France,FR-ARA,9,Europe/Paris
Montival,45.0075,4.1848,France,FR-ARA,10.6,Europe/Paris
Maclaunay,48.8442,3.5538,France,FR-GES,77,Europe/Paris
Voyenne,49.7245,3.7313,France,FR-HDF,20.9,Europe/Paris
Le Defoix,48.1317,1.1616,France,FR-F,20.9,Europe/Paris
L’Eclause,45.8807,2.5177,France,FR-ARA,13,Europe/Paris
Mareuge,45.6232,2.9284,France,FR-ARA,10.8,Europe/Paris
Sibiville,50.2984,2.3231,France,FR-HDF,15.9,Europe/Paris
Les Minimes,46.1429,-1.1604,France,FR-NAQ,2375.3,Europe/Paris
Saint-Rome-de-Tarn,44.0484,2.8961,France,FR-OCC,18.2,Europe/Paris
Saint-Avit,45.1956,4.9704,France,FR-ARA,41.8,Europe/Paris
Saint-Avit,45.872,2.5238,France,FR-ARA,13,Europe/Paris
Les Chaussins,44.5319,6.2655,France,FR-U,56.2,Europe/Paris
Joyeux,45.9604,5.0961,France,FR-ARA,16.1,Europe/Paris
Baunel,44.6112,0.7024,France,FR-NAQ,18,Europe/Paris
Cornihout-du-Mesnil,49.3936,0.843,France,FR-NOR,121.3,Europe/Paris
Forges-la-Forêt,47.8596,-1.2816,France,FR-E,45.6,Europe/Paris
La Pisière,47.7711,-1.3774,France,FR-R,40.7,Europe/Paris
Éclance,48.3057,4.6351,France,FR-GES,9.8,Europe/Paris
Le Domal,44.3766,3.2751,France,FR-OCC,21.3,Europe/Paris
Sainte-Anne du Portzic,48.3667,-4.55,France,FR-E,2719,Europe/Paris
Villegailhenc,43.269,2.3548,France,FR-OCC,342.9,Europe/Paris
Le Fer,45.3535,4.9832,France,FR-ARA,95,Europe/Paris
Thiernu,49.7599,3.7881,France,FR-HDF,18.9,Europe/Paris
La Cécile,45.5833,0.5,France,FR-NAQ,12.7,Europe/Paris
Montgenèvre,44.9318,6.7217,France,FR-U,11.8,Europe/Paris
Chacenay,48.1154,4.5275,France,FR-GES,8,Europe/Paris
Courcelles-lès-Semur,47.4555,4.2994,France,FR-BFC,22.8,Europe/Paris
Muhlbach-sur-Munster,48.0255,7.0824,France,FR-GES,107.2,Europe/Paris
Étréchy,46.9383,2.6185,France,FR-F,13.4,Europe/Paris
Étréchy,47.1617,2.7248,France,FR-F,13,Europe/Paris
Dénézé-sous-le-Lude,47.5298,0.1331,France,FR-R,22.3,Europe/Paris
Faulquemont,49.0491,6.5973,France,FR-GES,288,Europe/Paris
La Plancade,44.1656,2.2401,France,FR-OCC,14.5,Europe/Paris
Saint-Jean-de-Losne,47.1025,5.2656,France,FR-BFC,1027.2,Europe/Paris
Urepel,43.0701,-1.4163,France,FR-NAQ,12.2,Europe/Paris
Espinasse,45.4455,3.921,France,FR-ARA,17.3,Europe/Paris
Espinasse,46.0377,2.7111,France,FR-ARA,14.1,Europe/Paris
Espinasse,45.5306,3.6131,France,FR-ARA,10.6,Europe/Paris
Espinasse,44.8747,3.9301,France,FR-ARA,7.9,Europe/Paris
Espinasse,44.8719,2.9418,France,FR-ARA,4.3,Europe/Paris
Liry,49.307,4.6597,France,FR-GES,9.4,Europe/Paris
Boussès,44.1459,0.0943,France,FR-NAQ,0.9,Europe/Paris
Mont-de-Galié,42.9899,0.6471,France,FR-OCC,16.9,Europe/Paris
Dissé-sous-Ballon,48.2378,0.2975,France,FR-R,48.5,Europe/Paris
Brommat,44.83,2.6846,France,FR-OCC,14.9,Europe/Paris
Saint-Pantaly-d’Excideuil,45.3171,1.0141,France,FR-NAQ,18.3,Europe/Paris
Sain-Bel,45.8102,4.598,France,FR-ARA,633.4,Europe/Paris
Blaesheim,48.5068,7.6093,France,FR-GES,123.1,Europe/Paris
Marsac-sur-Don,47.5948,-1.6803,France,FR-R,56.8,Europe/Paris
Domptail,48.4459,6.6155,France,FR-GES,20.8,Europe/Paris
Grande Bozée,48.0367,-0.5952,France,FR-R,35,Europe/Paris
Hiers,45.8498,-1.0752,France,FR-NAQ,23.9,Europe/Paris
Brancourt-le-Grand,49.9764,3.382,France,FR-HDF,45.3,Europe/Paris
Garnat-sur-Engièvre,46.6337,3.6629,France,FR-ARA,38.8,Europe/Paris
Bénaven,44.7697,2.7036,France,FR-OCC,23.3,Europe/Paris
Heudicourt-sous-les-Côtes,48.9324,5.6972,France,FR-GES,14.5,Europe/Paris
Branceilles,45.0114,1.7102,France,FR-NAQ,23.5,Europe/Paris
Lavol,44.0067,4.1648,France,FR-OCC,55.9,Europe/Paris
Moïta,42.2789,9.4129,France,FR-H,14.6,Europe/Paris
Saint-Laurent-la-Conche,45.6848,4.2108,France,FR-ARA,44.3,Europe/Paris
Bazoches-sur-Guyonne,48.7783,1.8554,France,FR-J,118.5,Europe/Paris
Dignonville,48.2438,6.5052,France,FR-GES,31.5,Europe/Paris
Chassagnolles,45.3759,3.9546,France,FR-ARA,33.8,Europe/Paris
Le Biot,46.2623,6.6313,France,FR-ARA,41.7,Europe/Paris
La Ronzière,45.0932,3.2468,France,FR-ARA,5.2,Europe/Paris
Saint-Didier,45.6183,5.6115,France,FR-ARA,271.3,Europe/Paris
Saint-Didier,45.6333,6.45,France,FR-ARA,98.4,Europe/Paris
Saint-Didier,44.9454,5.0658,France,FR-ARA,94.6,Europe/Paris
Sevrai,48.7,-0.15,France,FR-NOR,31,Europe/Paris
Saint-Martial,43.9879,1.4287,France,FR-OCC,432.6,Europe/Paris
Saint-Martial,44.1546,2.3359,France,FR-OCC,17.7,Europe/Paris
Saint-Martial,44.0342,3.736,France,FR-OCC,13,Europe/Paris
Les Bonis,44.5167,6.7667,France,FR-U,1.2,Europe/Paris
Bourbach-le-Haut,47.7966,7.0282,France,FR-GES,71.1,Europe/Paris
Le Paisty-Vert,49.3444,-0.5161,France,FR-NOR,193,Europe/Paris
Saint-Germain-de-Joux,46.1783,5.7385,France,FR-ARA,43.1,Europe/Paris
Cessy,46.3203,6.0748,France,FR-ARA,787.6,Europe/Zurich
Le Russey,47.1605,6.7291,France,FR-BFC,90.6,Europe/Paris
Lesparrou,42.93,1.9039,France,FR-OCC,13.6,Europe/Paris
Sarrus,44.9,3.1,France,FR-ARA,6.1,Europe/Paris
Haute-Épine,49.5832,2.0114,France,FR-HDF,50.2,Europe/Paris
Romeix,45.35,2.6,France,FR-ARA,6.7,Europe/Paris
Saint-Julien,48.019,5.8951,France,FR-GES,9.8,Europe/Paris
Cheyran,44.0039,5.5846,France,FR-U,8.8,Europe/Paris
Grandchamp,48.719,1.62,France,FR-J,59.5,Europe/Paris
Pételoup,47.1708,3.0949,France,FR-BFC,17.8,Europe/Paris
Soeuvres,47.4179,3.7598,France,FR-BFC,10.9,Europe/Paris
Grandchamp,48.3028,0.1814,France,FR-R,34.5,Europe/Paris
Torvilliers,48.2742,3.974,France,FR-GES,77.6,Europe/Paris
Saint-Pierre-sur-Dropt,44.6437,0.2026,France,FR-NAQ,37.9,Europe/Paris
Quincieu,45.7394,5.0177,France,FR-ARA,526.8,Europe/Paris
Quincieu,45.2745,5.3859,France,FR-ARA,15.4,Europe/Paris
Brunissard,44.7933,6.7302,France,FR-U,5.1,Europe/Paris
Quernes,50.6058,2.3679,France,FR-HDF,142,Europe/Paris
Vauxrenard,46.2095,4.6442,France,FR-ARA,18.2,Europe/Paris
Vorey,45.1864,3.9099,France,FR-ARA,35.6,Europe/Paris
Le Lautaret,44.443,6.3528,France,FR-U,14.1,Europe/Paris
Éramecourt,49.7341,1.962,France,FR-HDF,38.3,Europe/Paris
Sainte-Marie-de-Campan,42.9836,0.2279,France,FR-OCC,14.9,Europe/Paris
Blars,44.5664,1.7194,France,FR-OCC,4.9,Europe/Paris
Conches,48.8549,2.7202,France,FR-J,1132,Europe/Paris
Montaut,43.3559,1.2915,France,FR-OCC,156.3,Europe/Paris
Montaut,43.1876,1.6437,France,FR-OCC,20.9,Europe/Paris
Montaut,43.3945,0.4192,France,FR-OCC,13.3,Europe/Paris
Paimpol,48.7783,-3.0466,France,FR-E,311.5,Europe/Paris
Buron,45.6163,3.2443,France,FR-ARA,42.4,Europe/Paris
La Forge,46.4811,2.0044,France,FR-F,19,Europe/Paris
Anglès,43.564,2.5606,France,FR-OCC,6.2,Europe/Paris
Manthes,45.3045,5.0111,France,FR-ARA,91.8,Europe/Paris
Tarzy,46.3819,2.8541,France,FR-ARA,33.1,Europe/Paris
Auradou,44.3348,0.8102,France,FR-NAQ,44.6,Europe/Paris
Verneiges,46.2686,2.3379,France,FR-NAQ,14.6,Europe/Paris
Rue de Trubleville,49.5259,0.8813,France,FR-NOR,62.3,Europe/Paris
Gueyze,44.0441,0.1327,France,FR-NAQ,14,Europe/Paris
Loumeuil,46.6876,0.3144,France,FR-NAQ,209.5,Europe/Paris
Saint-Jans-Cappel,50.7639,2.7223,France,FR-HDF,200.4,Europe/Paris
Boën-sur-Lignon,45.7511,4.0073,France,FR-ARA,542.7,Europe/Paris
La Forge,48.0333,-0.5333,France,FR-R,25.4,Europe/Paris
Varacieux,45.2329,5.3365,France,FR-ARA,49.9,Europe/Paris
Carisieu,45.7185,5.3202,France,FR-ARA,44.3,Europe/Paris
La Croix-de-la-Rochette,45.4672,6.1204,France,FR-ARA,137.1,Europe/Paris
Monviel,44.5687,0.5446,France,FR-NAQ,13.5,Europe/Paris
La Neuville-Sire-Bernard,49.7421,2.5149,France,FR-HDF,54.7,Europe/Paris
La Haute Bouexière,47.9467,-1.7554,France,FR-E,180.5,Europe/Paris
Sonzay,47.5269,0.462,France,FR-F,29.6,Europe/Paris
Essey,47.2045,4.5225,France,FR-BFC,18.8,Europe/Paris
Messei-Saint-Gervais,48.7115,-0.5339,France,FR-NOR,142.2,Europe/Paris
Montigny-le-Gannelon,48.0142,1.2335,France,FR-F,68,Europe/Paris
Hardinxent,50.7837,1.8052,France,FR-HDF,120.8,Europe/Paris
Prad Foene,47.7,-3.3306,France,FR-E,346.7,Europe/Paris
Chaveignes,47.0384,0.3497,France,FR-F,25.5,Europe/Paris
Gardouch,43.3907,1.6841,France,FR-OCC,96.2,Europe/Paris
Saint-Élophe,48.4097,5.7426,France,FR-GES,32.9,Europe/Paris
Treux,49.9579,2.5912,France,FR-HDF,120.5,Europe/Paris
Neuilly-le-Malherbe,49.0977,-0.5374,France,FR-NOR,67.3,Europe/Paris
Champ d’Oiseau,47.5538,4.3463,France,FR-BFC,13.8,Europe/Paris
Chambeau,45.85,1.1833,France,FR-NAQ,1521.2,Europe/Paris
Le Perréon,46.0632,4.6005,France,FR-ARA,112.7,Europe/Paris
Saint-Jean-sur-Tourbe,49.1268,4.6802,France,FR-GES,5.8,Europe/Paris
Beauchalot,43.1079,0.8685,France,FR-OCC,81.1,Europe/Paris
Saint-Germain de Béard,46.1943,5.5431,France,FR-ARA,231,Europe/Paris
La Noue,48.909,1.5471,France,FR-J,89.1,Europe/Paris
Cirières,46.8374,-0.6212,France,FR-NAQ,56.5,Europe/Paris
Seuil,49.4806,4.4546,France,FR-GES,13.5,Europe/Paris
Maël-Pestivien,48.3941,-3.2971,France,FR-E,11.7,Europe/Paris
Condat-en-Combraille,45.8524,2.5636,France,FR-ARA,10.6,Europe/Paris
Campagnac-lès-Quercy,44.6945,1.1733,France,FR-NAQ,15.8,Europe/Paris
Varreddes,49.003,2.9279,France,FR-J,246.6,Europe/Paris
Rue,50.2715,1.6716,France,FR-HDF,105.8,Europe/Paris
Puntous,43.3037,0.4705,France,FR-OCC,23,Europe/Paris
Thérouanne,50.637,2.2584,France,FR-HDF,102.6,Europe/Paris
Le Vaudreuil,49.2541,1.2096,France,FR-NOR,708.5,Europe/Paris
Mas-del-Bos,44.7246,1.0755,France,FR-NAQ,7,Europe/Paris
Saint-Martin-aux-Buneaux,49.8243,0.5563,France,FR-NOR,81.2,Europe/Paris
Nasbinals,44.6622,3.0464,France,FR-OCC,7.7,Europe/Paris
Volnay,47.0011,4.7818,France,FR-BFC,33,Europe/Paris
Volnay,47.4226,4.4808,France,FR-BFC,8.2,Europe/Paris
Saint-Sterlin,47.7526,-3.2932,France,FR-E,176.7,Europe/Paris
Verneuil-en-Halatte,49.2791,2.5241,France,FR-HDF,221.5,Europe/Paris
Lantages,48.0717,4.211,France,FR-GES,13.5,Europe/Paris
Prez-sur-Marne,48.5628,5.0503,France,FR-GES,94.9,Europe/Paris
Soeurdres,47.7389,-0.5739,France,FR-R,26.7,Europe/Paris
Remouillé,47.0559,-1.3773,France,FR-R,81.5,Europe/Paris
Pouilly-sous-Charlieu,46.1455,4.1129,France,FR-ARA,145,Europe/Paris
Touillon,47.6508,4.4252,France,FR-BFC,11.1,Europe/Paris
Le Mas de Baud,45.6462,0.4066,France,FR-NAQ,34.3,Europe/Paris
Juniville,49.3967,4.3828,France,FR-GES,58.1,Europe/Paris
Montillas,44.3688,2.3348,France,FR-OCC,17.1,Europe/Paris
Bellefoye,46.6881,0.2723,France,FR-NAQ,335.5,Europe/Paris
Port d’Atelier,47.7585,6.0246,France,FR-BFC,41.2,Europe/Paris
Mus,43.7398,4.2005,France,FR-OCC,586.5,Europe/Paris
Boullard,44.2167,6.3521,France,FR-U,3.3,Europe/Paris
Dettey,46.7637,4.1817,France,FR-BFC,3.9,Europe/Paris
Prunay-sous-Ablis,48.5333,1.8,France,FR-J,29.4,Europe/Paris
Les Veaux,46.4713,3.1456,France,FR-ARA,27.8,Europe/Paris
Sémalens,43.5914,2.11,France,FR-OCC,181.5,Europe/Paris
Stervin,47.7093,-3.3219,France,FR-E,351.6,Europe/Paris
Thézac,45.6715,-0.7898,France,FR-NAQ,26.4,Europe/Paris
Thézac,44.4293,1.015,France,FR-NAQ,20,Europe/Paris
Aubin-Saint-Vaast,50.395,1.9729,France,FR-HDF,110.2,Europe/Paris
Grâce-Uzel,48.241,-2.8008,France,FR-E,55.8,Europe/Paris
Anglards-de-Salers,45.2046,2.44,France,FR-ARA,17.4,Europe/Paris
Neuflize,49.4096,4.3073,France,FR-GES,59.3,Europe/Paris
Vaulx-en-Velin,45.7768,4.9186,France,FR-ARA,2183.2,Europe/Paris
Beauvoir-Rivière,50.2143,2.1777,France,FR-HDF,38.7,Europe/Paris
Campel,47.9363,-2.0089,France,FR-E,52.7,Europe/Paris
Arinthod,46.3931,5.5678,France,FR-BFC,54.6,Europe/Paris
Les Vignères,43.8816,5.0057,France,FR-U,506.9,Europe/Paris
Bucchinera,41.8233,9.1425,France,FR-H,2.3,Europe/Paris
Saint-Révérien,47.211,3.5054,France,FR-BFC,11,Europe/Paris
La Breille-les-Pins,47.3407,0.0774,France,FR-R,51.1,Europe/Paris
Le Ronlet,45.0679,0.7244,France,FR-NAQ,54.5,Europe/Paris
Clouchouren,48.274,-4.4963,France,FR-E,99.4,Europe/Paris
Méral,47.9609,-0.9824,France,FR-R,55.8,Europe/Paris
Servoules,44.23,5.8962,France,FR-U,107.2,Europe/Paris
Courson-Monteloup,48.6003,2.1497,France,FR-J,157,Europe/Paris
Crognac,45.1564,0.5379,France,FR-NAQ,158.4,Europe/Paris
Aillac,44.8419,1.3022,France,FR-NAQ,48.4,Europe/Paris
Grand Jarien,46.961,2.3021,France,FR-F,49.2,Europe/Paris
Villefranche-de-Conflent,42.5878,2.3689,France,FR-OCC,44.8,Europe/Paris
Valpreveyre,44.8115,6.9683,France,FR-U,4.6,Europe/Paris
Challain-la-Potherie,47.6351,-1.0464,France,FR-R,17.6,Europe/Paris
Molinet,46.4658,3.9359,France,FR-ARA,47.5,Europe/Paris
Vèbre,42.7754,1.7217,France,FR-OCC,27.4,Europe/Paris
La Borde,45.4828,1.5857,France,FR-NAQ,18.1,Europe/Paris
Gevigney-et-Mercey,47.7988,5.9323,France,FR-BFC,25.3,Europe/Paris
Auboncourt-Vauzelles,49.5517,4.4932,France,FR-GES,23.3,Europe/Paris
Charaud,46.15,1.7667,France,FR-NAQ,17.8,Europe/Paris
Ispagnac,44.371,3.5347,France,FR-OCC,16.7,Europe/Paris
La Fargennerie,45.096,0.8755,France,FR-NAQ,48.5,Europe/Paris
Mormant,47.9789,5.1221,France,FR-GES,9.5,Europe/Paris
Le Bord des Rues,50.3332,3.9444,France,FR-HDF,92.8,Europe/Brussels
Chavenat,45.45,0.1667,France,FR-NAQ,27,Europe/Paris
Richeville,49.2671,1.5351,France,FR-NOR,52,Europe/Paris
Fouqueville,49.2193,0.9592,France,FR-NOR,52.5,Europe/Paris
Muntzenheim,48.1021,7.4732,France,FR-GES,187.1,Europe/Paris
Saint-Maurice-de-Gourdans,45.8225,5.1945,France,FR-ARA,108.8,Europe/Paris
Saint-Mayeux,48.2562,-3.0062,France,FR-E,17.9,Europe/Paris
Fresnoy-le-Château,48.2093,4.2235,France,FR-GES,23.3,Europe/Paris
Estillols,45.2667,2.4,France,FR-ARA,7.6,Europe/Paris
Mifaget,43.115,-0.3182,France,FR-NAQ,43.3,Europe/Paris
Miscon,44.6274,5.5222,France,FR-ARA,4.7,Europe/Paris
Courtoin,47.933,2.7036,France,FR-F,23.5,Europe/Paris
Saint-Denis,46.4791,-0.3894,France,FR-NAQ,82,Europe/Paris
Saint-Denis,45.7167,2.25,France,FR-NAQ,19.7,Europe/Paris
Les Nielloux,46.6076,1.6486,France,FR-F,10.7,Europe/Paris
Theuley,47.6225,5.8011,France,FR-BFC,18.9,Europe/Paris
Schaentzel,48.2441,7.3265,France,FR-GES,79.8,Europe/Paris
Raynaud,44.6952,0.2955,France,FR-NAQ,15.4,Europe/Paris
Chériennes,50.3142,2.0357,France,FR-HDF,29.3,Europe/Paris
Nancy,48.6936,6.1846,France,FR-GES,6947.8,Europe/Paris
Dallet,45.7705,3.2388,France,FR-ARA,239.4,Europe/Paris
Chef-Haut,48.3565,6.0152,France,FR-GES,14.6,Europe/Paris
Thiouville,49.6945,0.618,France,FR-NOR,51.9,Europe/Paris
La Neuville-à-Maire,49.5819,4.8545,France,FR-GES,18.2,Europe/Paris
Izella,48.3799,-3.6422,France,FR-E,18.6,Europe/Paris
Albertacce,42.327,8.9842,France,FR-H,2.6,Europe/Paris
La Neuville-Garnier,49.333,2.0398,France,FR-HDF,35.2,Europe/Paris
Badonvilliers,48.5504,5.5857,France,FR-GES,7.6,Europe/Paris
Nonards,45.0253,1.7949,France,FR-NAQ,28.5,Europe/Paris
Port-Haliguen,47.4833,-3.1,France,FR-E,496.1,Europe/Paris
Neuville-sur-Ain,46.0714,5.3749,France,FR-ARA,87.7,Europe/Paris
Janaillat,46.0569,1.7451,France,FR-NAQ,12.5,Europe/Paris
Aubevideyre,45.2023,3.2248,France,FR-ARA,12.1,Europe/Paris
Houlette,45.7609,-0.2129,France,FR-NAQ,53.4,Europe/Paris
Pérérol,45.3946,3.1015,France,FR-ARA,39.6,Europe/Paris
Nousse,43.7163,-0.825,France,FR-NAQ,90.2,Europe/Paris
Corneilla-de-Conflent,42.5669,2.3812,France,FR-OCC,44.2,Europe/Paris
Précy-sur-Marne,48.9308,2.7744,France,FR-J,220.9,Europe/Paris
Corbeil-Cerf,49.2808,2.1028,France,FR-HDF,87.8,Europe/Paris
Cagnoncles,50.1916,3.3106,France,FR-HDF,88.6,Europe/Paris
Lattainville,49.2425,1.8136,France,FR-HDF,45,Europe/Paris
Sauzon,47.3711,-3.2243,France,FR-E,38.6,Europe/Paris
Saint-Michel-de-Livet,49.0197,0.1353,France,FR-NOR,51.4,Europe/Paris
Bessines,46.3021,-0.5163,France,FR-NAQ,308.7,Europe/Paris
Boule-d’Amont,42.5795,2.6138,France,FR-OCC,2.2,Europe/Paris
Génillé,47.184,1.0972,France,FR-F,25.9,Europe/Paris
Lessac,46.0686,0.6751,France,FR-NAQ,18.2,Europe/Paris
Clemencière,45.2346,5.7263,France,FR-ARA,216.5,Europe/Paris
Bourg de Nozay,47.5667,-1.6167,France,FR-R,72.2,Europe/Paris
La Mareuge,45.4066,2.7655,France,FR-ARA,7.1,Europe/Paris
Francueil,47.3128,1.084,France,FR-F,116.3,Europe/Paris
La Valade,46.3385,2.3355,France,FR-ARA,14.4,Europe/Paris
La Valade,44.8333,4.1167,France,FR-ARA,6.7,Europe/Paris
Domptail-en-l’Air,48.5144,6.3273,France,FR-GES,21.2,Europe/Paris
Euvezin,48.9242,5.8381,France,FR-GES,10.9,Europe/Paris
La Cambe,49.3435,-1.0058,France,FR-NOR,61,Europe/Paris
Vieille-Ville,46.6159,1.9616,France,FR-F,67.6,Europe/Paris
Alfortville,48.805,2.4239,France,FR-J,13888.2,Europe/Paris
Moncy,48.8248,-0.686,France,FR-NOR,32,Europe/Paris
Grange-de-Vaivre,47.0031,5.8414,France,FR-BFC,50.1,Europe/Paris
Genneville,49.3698,0.2754,France,FR-NOR,92,Europe/Paris
Livry-sur-Vesle,49.1139,4.3082,France,FR-GES,32.6,Europe/Paris
Saint-Maur,48.1,-3.5,France,FR-E,22.4,Europe/Paris
Saint-Maur,46.8066,1.639,France,FR-F,48.2,Europe/Paris
Saint-Maur,46.5805,2.299,France,FR-F,9.4,Europe/Paris
La Même,44.5141,0.9323,France,FR-NAQ,225.3,Europe/Paris
Connangles,45.2988,3.6472,France,FR-ARA,6.3,Europe/Paris
Arbus,43.3331,-0.5056,France,FR-NAQ,81.3,Europe/Paris
Pré Picault,46.7034,0.9847,France,FR-F,45.9,Europe/Paris
Les Audrans,44.517,5.1662,France,FR-ARA,7.1,Europe/Paris
Coissard,45.682,3.3596,France,FR-ARA,43.4,Europe/Paris
Le Sarret,44.4402,5.7925,France,FR-U,6.7,Europe/Paris
Le Sarret,44.8667,6.4833,France,FR-U,5.1,Europe/Paris
La Balmette,45.7573,6.2832,France,FR-ARA,265.4,Europe/Paris
Vexaincourt,48.4929,7.0457,France,FR-GES,15,Europe/Paris
Rohanno,48.2638,-3.0232,France,FR-E,17.9,Europe/Paris
Zetting,49.0799,7.1316,France,FR-GES,113.4,Europe/Paris
Cize,46.7241,5.9189,France,FR-BFC,208.7,Europe/Paris
Bouvent,46.2867,5.639,France,FR-ARA,614.9,Europe/Paris
La Girière,47.8481,-1.3293,France,FR-E,35.3,Europe/Paris
Mauléon-Barousse,42.9594,0.5674,France,FR-OCC,19.7,Europe/Paris
Bizonnes,45.4527,5.3795,France,FR-ARA,77.5,Europe/Paris
Ligny-sur-Canche,50.2852,2.257,France,FR-HDF,28,Europe/Paris
Antonianes,45.3166,4.1933,France,FR-ARA,196.7,Europe/Paris
Palavese,41.627,9.2515,France,FR-H,68.1,Europe/Paris
Frons,44.1939,2.4156,France,FR-OCC,23,Europe/Paris
Cernay,46.8336,0.3039,France,FR-NAQ,165.7,Europe/Paris
Rejatas,45.6386,1.4112,France,FR-NAQ,27,Europe/Paris
Brugelet,45.4911,3.0426,France,FR-ARA,4.7,Europe/Paris
Le Hubert,48.6281,0.7455,France,FR-NOR,41.2,Europe/Paris
Montflix,48.5134,2.1083,France,FR-J,107.8,Europe/Paris
Saint-Pierre-de-Plesguen,48.447,-1.9137,France,FR-E,105,Europe/Paris
Veyras,44.7338,4.5612,France,FR-ARA,203.3,Europe/Paris
Montoing,45.0639,4.0124,France,FR-ARA,47.2,Europe/Paris
Dommartin-Lettrée,48.7686,4.2979,France,FR-GES,4.8,Europe/Paris
Saint-Évroult-Notre-Dame-du-Bois,48.7914,0.4604,France,FR-NOR,13.6,Europe/Paris
Cavarc,44.6895,0.6417,France,FR-NAQ,10.6,Europe/Paris
Moncel-et-Happoncourt,48.4199,5.7006,France,FR-GES,29.4,Europe/Paris
Les Îles Menéfrier,47.3362,3.9737,France,FR-BFC,11,Europe/Paris
Les Vivas,45.2505,4.0908,France,FR-ARA,87.7,Europe/Paris
Verdonnet,47.7365,4.3288,France,FR-BFC,4.8,Europe/Paris
Le Pavillon,49.5506,0.7795,France,FR-NOR,64.2,Europe/Paris
Senven-Léhart,48.4255,-3.0692,France,FR-E,18.4,Europe/Paris
Miserey-Salines,47.2864,5.9739,France,FR-BFC,342.6,Europe/Paris
Tremblay,48.4222,-1.4756,France,FR-E,43,Europe/Paris
Marest-Dampcourt,49.6006,3.152,France,FR-HDF,42.5,Europe/Paris
Frenelle-la-Grande,48.3558,6.0855,France,FR-GES,26,Europe/Paris
La Pyramide,47.4333,-0.4833,France,FR-R,625.7,Europe/Paris
La Cochette,45.2353,6.3497,France,FR-ARA,13.4,Europe/Paris
Saint-Valérien,46.5283,-0.9396,France,FR-R,34.5,Europe/Paris
Sciecq,46.3731,-0.471,France,FR-NAQ,148.6,Europe/Paris
Corneilla-del-Vercol,42.6245,2.9517,France,FR-OCC,487.9,Europe/Paris
Ménétréols-sous-Vatan,47.0156,1.8432,France,FR-F,4.2,Europe/Paris
Clermont,45.9706,5.907,France,FR-ARA,72.2,Europe/Paris
La Grange-au-Doyen,48.1184,3.3429,France,FR-BFC,138.5,Europe/Paris
La Châtaigneraie,46.6496,-0.7413,France,FR-R,323.6,Europe/Paris
Maxey-sur-Vaise,48.5386,5.6676,France,FR-GES,25.5,Europe/Paris
Antully,46.9036,4.4102,France,FR-BFC,21.2,Europe/Paris
Kerguen,47.9265,-4.3779,France,FR-E,45.5,Europe/Paris
Kerguen,48.0707,-3.6343,France,FR-E,27.3,Europe/Paris
La Cayolle,43.2294,5.4043,France,FR-U,1205.7,Europe/Paris
Chiatra,42.2911,9.4741,France,FR-H,27.4,Europe/Paris
Les Lagnys,46.9813,1.8149,France,FR-F,9.7,Europe/Paris
Villers,49.2331,1.4541,France,FR-NOR,196.2,Europe/Paris
Villers,49.75,1.7333,France,FR-NOR,15.8,Europe/Paris
Roupied,49.7499,1.7019,France,FR-NOR,15.8,Europe/Paris
Le Verdois,47.5216,2.6685,France,FR-F,9.9,Europe/Paris
Maudétour-en-Vexin,49.0996,1.7751,France,FR-J,35.9,Europe/Paris
Fauville-en-Caux,49.6526,0.592,France,FR-NOR,287.2,Europe/Paris
Conord,45.8901,3.5148,France,FR-ARA,153.6,Europe/Paris
Rest,47.9167,-4.2,France,FR-E,134.6,Europe/Paris
Trémauville,49.6674,0.5204,France,FR-NOR,41.9,Europe/Paris
Auchebie,45.4,2.2,France,FR-NAQ,6.5,Europe/Paris
Tresserre,42.5639,2.8299,France,FR-OCC,79.7,Europe/Paris
Les Issards,45.4474,3.7108,France,FR-ARA,41.5,Europe/Paris
Saint-Gervais,46.8541,3.5704,France,FR-BFC,12.2,Europe/Paris
Montmiral,45.1541,5.1481,France,FR-ARA,28.3,Europe/Paris
Tremblecourt,48.8059,5.9406,France,FR-GES,40.3,Europe/Paris
Le Fango,42.7039,9.4407,France,FR-H,2056.2,Europe/Paris
Dorans,47.5885,6.8385,France,FR-BFC,155.5,Europe/Paris
Vavincourt,48.8236,5.2077,France,FR-GES,32.1,Europe/Paris
Méry-sur-Oise,49.0588,2.1911,France,FR-J,972.9,Europe/Paris
Lacapelle-Livron,44.2669,1.7837,France,FR-OCC,13.9,Europe/Paris
Nod-sur-Seine,47.7667,4.5724,France,FR-BFC,10,Europe/Paris
Romenay,46.5021,5.069,France,FR-BFC,33.9,Europe/Paris
Romenay,46.9186,3.5524,France,FR-BFC,3,Europe/Paris
Chevaigné-du-Maine,48.437,-0.3877,France,FR-R,14.5,Europe/Paris
Les Grèves,48.5651,3.82,France,FR-GES,38.2,Europe/Paris
Ally,45.1742,2.3154,France,FR-ARA,27.4,Europe/Paris
Ally,45.1596,3.3142,France,FR-ARA,4.4,Europe/Paris
Coiffy-le-Bas,47.9146,5.6773,France,FR-GES,7.5,Europe/Paris
Jarjayes,44.5062,6.1103,France,FR-U,21.3,Europe/Paris
Hiersac,45.6685,0.0041,France,FR-NAQ,163,Europe/Paris
Ippécourt,49.0359,5.2108,France,FR-GES,10.1,Europe/Paris
Saint-Christophe-en-Boucherie,46.6786,2.123,France,FR-F,9.5,Europe/Paris
Le Chier,45.1065,4.486,France,FR-ARA,7.1,Europe/Paris
Le Chier,44.9882,3.6933,France,FR-ARA,3.7,Europe/Paris
Les Puits l’Évêque,48.1181,1.0658,France,FR-F,24.6,Europe/Paris
Hary,49.7857,3.9274,France,FR-HDF,19.9,Europe/Paris
Ennetières-en-Weppes,50.6353,2.9401,France,FR-HDF,102.5,Europe/Paris
Berthes,47.4866,3.0212,France,FR-BFC,14.3,Europe/Paris
Chaumont,46.8453,2.7534,France,FR-F,20.7,Europe/Paris
Sainte-Thècle,43.7683,7.3666,France,FR-U,171.9,Europe/Paris
Négron,47.4134,0.9546,France,FR-F,172.3,Europe/Paris
Villegéneray,47.4388,3.1256,France,FR-BFC,12.8,Europe/Paris
Bussiereix,45.9316,0.8505,France,FR-NAQ,23.4,Europe/Paris
Tornac,44.0229,3.9971,France,FR-OCC,50.1,Europe/Paris
La Babinais,47.3086,-1.9039,France,FR-R,40.3,Europe/Paris
Pas-de-Jeu,46.9753,-0.0428,France,FR-NAQ,36.7,Europe/Paris
La Baroche-sous-Lucé,48.543,-0.5792,France,FR-NOR,15.6,Europe/Paris
Rouessé-Fontaine,48.3224,0.1502,France,FR-R,21,Europe/Paris
Villebret,46.2668,2.6386,France,FR-ARA,93.5,Europe/Paris
Montbolo,42.4853,2.6538,France,FR-OCC,9.9,Europe/Paris
Roumagne,44.6186,0.3378,France,FR-NAQ,53.6,Europe/Paris
Mazeley,48.2422,6.3389,France,FR-GES,23.4,Europe/Paris
Cabanac-Cazaux,43.034,0.7394,France,FR-OCC,32,Europe/Paris
Cuhon,46.7571,0.0964,France,FR-NAQ,25.2,Europe/Paris
Saint-Seurin-de-Palenne,45.6259,-0.5155,France,FR-NAQ,37.8,Europe/Paris
Saint-Georges-de-Baroille,45.8493,4.1309,France,FR-ARA,21.8,Europe/Paris
Les Îles,46.3333,2.6,France,FR-ARA,1782.4,Europe/Paris
Les Îles,45.182,5.6972,France,FR-ARA,1046.3,Europe/Paris
Mézières,48.3576,2.4343,France,FR-J,27.7,Europe/Paris
Pessat,45.9144,3.1566,France,FR-ARA,199.1,Europe/Paris
Berrie,47.0675,-0.0679,France,FR-NAQ,15.4,Europe/Paris
Arbusigny,46.0932,6.2186,France,FR-ARA,97,Europe/Paris
Causse-de-la-Selle,43.8043,3.648,France,FR-OCC,7.8,Europe/Paris
Les Jarres,45.263,5.9327,France,FR-ARA,547.6,Europe/Paris
Schalbach,48.8228,7.1711,France,FR-GES,23.8,Europe/Paris
La Bâtie-Divisin,45.5103,5.5979,France,FR-ARA,87.1,Europe/Paris
Beaumont-du-Lac,45.7712,1.8349,France,FR-NAQ,7.3,Europe/Paris
Gumery,48.4483,3.4316,France,FR-GES,21.3,Europe/Paris
Saint-Laurent-sur-Manoire,45.1485,0.7949,France,FR-NAQ,90.6,Europe/Paris
Maizières-lès-Vic,48.7192,6.7761,France,FR-GES,22.2,Europe/Paris
Réez-Fosse-Martin,49.107,2.933,France,FR-HDF,27,Europe/Paris
Chevinay,45.7702,4.6077,France,FR-ARA,67,Europe/Paris
Hombières,48.2992,1.6228,France,FR-F,15.3,Europe/Paris
Lannuzel,48.3887,-4.2652,France,FR-E,74.9,Europe/Paris
Campu,42.8969,9.4378,France,FR-H,22.3,Europe/Paris
Nagel-Séez-Mesnil,48.9211,0.9471,France,FR-NOR,29.9,Europe/Paris
Apprieu,45.3959,5.4999,France,FR-ARA,224.2,Europe/Paris
Naucelle,44.198,2.3417,France,FR-OCC,93.1,Europe/Paris
Loiré,47.6148,-0.9789,France,FR-R,26.8,Europe/Paris
Gouellet Leuhan,48.0833,-3.8167,France,FR-E,60.7,Europe/Paris
Lomprat,45.5304,2.9753,France,FR-ARA,13.7,Europe/Paris
Grand Ceriseaux,48.1853,2.7763,France,FR-J,213.9,Europe/Paris
Bédeille,43.348,-0.1011,France,FR-NAQ,48,Europe/Paris
Crusnes,49.4341,5.9156,France,FR-GES,269,Europe/Paris
Pommier,44.914,1.5605,France,FR-OCC,31.4,Europe/Paris
La Champ,45.0844,2.9615,France,FR-ARA,13.9,Europe/Paris
Sauveterre-de-Guyenne,44.6929,-0.0863,France,FR-NAQ,56,Europe/Paris
Ardent,46.132,1.1577,France,FR-NAQ,16.2,Europe/Paris
Othe,49.4949,5.4423,France,FR-GES,10.8,Europe/Paris
Lucelle,47.4203,7.2447,France,FR-GES,25.6,Europe/Zurich
Saint-Léger-sur-Bonneville,49.2877,0.3335,France,FR-NOR,43.6,Europe/Paris
Propriano,41.6759,8.9041,France,FR-H,175.7,Europe/Paris
Vialleix,46.0838,3.0773,France,FR-ARA,24.8,Europe/Paris
Cernon,45.4712,5.9879,France,FR-ARA,98.9,Europe/Paris
Saint-Pierre-de-Cormeilles,49.2355,0.3836,France,FR-NOR,33.6,Europe/Paris
Beaumont-de-Lomagne,43.883,0.9877,France,FR-OCC,83.8,Europe/Paris
Coclois,48.4738,4.3376,France,FR-GES,33.7,Europe/Paris
Tessonnière,46.813,-0.1914,France,FR-NAQ,21.8,Europe/Paris
La Harmoye,48.3359,-2.9616,France,FR-E,25,Europe/Paris
Baliros,43.2277,-0.3062,France,FR-NAQ,101,Europe/Paris
Donzacq,43.6567,-0.8038,France,FR-NAQ,40.8,Europe/Paris
Trézelan,48.6496,-3.2577,France,FR-E,130,Europe/Paris
Gimouille,46.9422,3.0859,France,FR-BFC,33.5,Europe/Paris
Callian,43.6221,6.7527,France,FR-U,141.1,Europe/Paris
Jean-Jean,43.9073,5.4371,France,FR-U,256.7,Europe/Paris
Les Bernards,44.5333,6.3167,France,FR-U,56,Europe/Paris
Les Girards,44.234,5.3213,France,FR-ARA,6,Europe/Paris
Becquincourt,49.9101,2.816,France,FR-HDF,61,Europe/Paris
Guiler-sur-Goyen,48.0157,-4.3593,France,FR-E,46.6,Europe/Paris
Tabaille,43.3605,-0.9042,France,FR-NAQ,12.8,Europe/Paris
Listrac-de-Durèze,44.7621,0.0452,France,FR-NAQ,44.7,Europe/Paris
Hauterive,44.4299,0.5812,France,FR-NAQ,74.8,Europe/Paris
Kerandreau,48.049,-3.7219,France,FR-E,44.3,Europe/Paris
Les Alleuds,47.3187,-0.4075,France,FR-R,98.7,Europe/Paris
Les Bernards,46.7482,1.4932,France,FR-F,17.2,Europe/Paris
Vélu,50.1076,2.9718,France,FR-HDF,43.7,Europe/Paris
Saint-Mesmin,46.7937,-0.7338,France,FR-R,70.1,Europe/Paris
Mallet Petit,46.488,2.2426,France,FR-F,10.2,Europe/Paris
Château-d’Olonne,46.5038,-1.741,France,FR-R,426.6,Europe/Paris
Saint-Savournin,43.4064,5.5274,France,FR-U,642,Europe/Paris
Bouillac,44.5744,2.1629,France,FR-OCC,55,Europe/Paris
Bouillac,43.8427,1.1186,France,FR-OCC,20.9,Europe/Paris
Prenois,47.376,4.8966,France,FR-BFC,25.5,Europe/Paris
Ouve-Wirquin,50.6478,2.1371,France,FR-HDF,108.3,Europe/Paris
Buteau,48.1534,2.6622,France,FR-J,22.5,Europe/Paris
Monestier,45.1986,4.5312,France,FR-ARA,12.2,Europe/Paris
Monestier,46.2557,3.1135,France,FR-ARA,8.8,Europe/Paris
Espeyroux,44.7625,1.923,France,FR-OCC,11.8,Europe/Paris
Les Chabannes,44.0939,5.9495,France,FR-U,30.3,Europe/Paris
Brinckheim,47.6261,7.4583,France,FR-GES,166.1,Europe/Paris
Tarnos,43.5406,-1.4613,France,FR-NAQ,501.9,Europe/Paris
Les Joncheries,48.3003,3.0058,France,FR-J,19.7,Europe/Paris
Arbignieu,45.7285,5.6496,France,FR-ARA,37.4,Europe/Paris
Herly,50.548,1.9853,France,FR-HDF,19.2,Europe/Paris
Herly,49.757,2.8743,France,FR-HDF,12.8,Europe/Paris
La Trinité-Langonnet,48.162,-3.4512,France,FR-E,22.4,Europe/Paris
Les Aubués,47.1104,3.0825,France,FR-BFC,55.8,Europe/Paris
Bessey-en-Chaume,47.0806,4.7429,France,FR-BFC,10.9,Europe/Paris
Crouseilles,43.5247,-0.0893,France,FR-NAQ,19.9,Europe/Paris
L’Age Martin,45.6272,0.378,France,FR-NAQ,61.2,Europe/Paris
Roquedur le Haut,43.9743,3.6569,France,FR-OCC,20.9,Europe/Paris
Maisod,46.478,5.6882,France,FR-BFC,45.5,Europe/Paris
Luplanté,48.3003,1.3991,France,FR-F,26.7,Europe/Paris
Saint-Gal,45.0258,3.2097,France,FR-ARA,11.1,Europe/Paris
Le Vialard,45.0534,1.8674,France,FR-NAQ,18.8,Europe/Paris
La Pinolie,45.1638,0.9919,France,FR-NAQ,22.9,Europe/Paris
Bonas,43.7795,0.4132,France,FR-OCC,15.1,Europe/Paris
Nestier,43.0626,0.4792,France,FR-OCC,34.1,Europe/Paris
Tachoires,43.4722,0.6645,France,FR-OCC,10.3,Europe/Paris
Campénéac,47.9581,-2.2948,France,FR-E,32,Europe/Paris
Montferrand-du-Périgord,44.7505,0.8663,France,FR-NAQ,13.3,Europe/Paris
Vermenton,47.6646,3.735,France,FR-BFC,45.5,Europe/Paris
Franqueville,50.0956,2.1056,France,FR-HDF,35.8,Europe/Paris
Franqueville,49.81,3.8098,France,FR-HDF,32.1,Europe/Paris
Marcollange,45.85,2.5333,France,FR-ARA,10.6,Europe/Paris
Le Chaussendent,44.8167,6.2,France,FR-U,0.9,Europe/Paris
Mortagne,48.2706,6.7532,France,FR-GES,8.8,Europe/Paris
Armancourt,49.3729,2.7658,France,FR-HDF,292.6,Europe/Paris
Armancourt,49.6777,2.7115,France,FR-HDF,9.4,Europe/Paris
Saint-Martin-le-Pin,45.5549,0.6142,France,FR-NAQ,18.2,Europe/Paris
Alboussière,44.9441,4.7288,France,FR-ARA,56.6,Europe/Paris
Wahagnies,50.4866,3.0345,France,FR-HDF,426.7,Europe/Paris
Hérouville,49.1013,2.1324,France,FR-J,72.2,Europe/Paris
Arsilhac,45.1875,4.071,France,FR-ARA,52.2,Europe/Paris
Rochesson,48.0219,6.7872,France,FR-GES,33,Europe/Paris
Pont-Melvez,48.4606,-3.3066,France,FR-E,30.1,Europe/Paris
Daignac,44.7997,-0.2491,France,FR-NAQ,91.4,Europe/Paris
Canet-de-Salars,44.2353,2.7533,France,FR-OCC,14.1,Europe/Paris
Heiteren,47.9702,7.54,France,FR-GES,44.7,Europe/Paris
Lamensans,43.7786,-0.3358,France,FR-NAQ,24.6,Europe/Paris
Pissot,45.0636,0.6722,France,FR-NAQ,26.7,Europe/Paris
Le Péage,45.7976,0.4166,France,FR-NAQ,78.3,Europe/Paris
Westhouse-Marmoutier,48.6857,7.45,France,FR-GES,66.7,Europe/Paris
Meymans,45.0159,5.1481,France,FR-ARA,42.2,Europe/Paris
Drocourt,49.0571,1.7669,France,FR-J,134.8,Europe/Paris
Saint-Just-Chaleyssin,45.5942,4.9985,France,FR-ARA,196,Europe/Paris
Beaucourt-sur-l’Hallue,49.9898,2.444,France,FR-HDF,48.3,Europe/Paris
Saint-Sériès,43.7319,4.1055,France,FR-OCC,255.6,Europe/Paris
Mardié,47.8862,2.0575,France,FR-F,160.4,Europe/Paris
Landrévarzec,48.09,-4.0619,France,FR-E,84.7,Europe/Paris
Neuville-les-Dames,46.1623,5.0067,France,FR-ARA,66.1,Europe/Paris
Gosnay,50.5062,2.589,France,FR-HDF,454.4,Europe/Paris
Mas d’Allègre,44.1966,4.262,France,FR-OCC,34.6,Europe/Paris
Demange-aux-Eaux,48.5816,5.4601,France,FR-GES,22.2,Europe/Paris
La Géraudais,47.4141,-2.0614,France,FR-R,200.9,Europe/Paris
Ferrières-lès-Ray,47.5799,5.8031,France,FR-BFC,12.4,Europe/Paris
Saint-Agnin-sur-Bion,45.5395,5.2369,France,FR-ARA,92.3,Europe/Paris
Sioniac,44.9745,1.8126,France,FR-NAQ,26.2,Europe/Paris
Coispéan,47.3654,-2.4642,France,FR-R,271,Europe/Paris
Juillenay,47.3601,4.2757,France,FR-BFC,10.4,Europe/Paris
Tesson,45.6326,-0.6529,France,FR-NAQ,98.6,Europe/Paris
Cazin,48.5754,-3.6505,France,FR-E,77.7,Europe/Paris
Belverne,47.6318,6.6502,France,FR-BFC,20.2,Europe/Paris
Rosheim,48.497,7.4698,France,FR-GES,162.5,Europe/Paris
Martinfontaine,49.3925,5.7751,France,FR-GES,21.4,Europe/Paris
Belinay,45.029,2.8387,France,FR-ARA,9.8,Europe/Paris
Le Villars,46.5311,4.9304,France,FR-BFC,50.7,Europe/Paris
Sanxay,46.4936,-0.0077,France,FR-NAQ,19.3,Europe/Paris
Cocherel,48.6651,0.8923,France,FR-F,14.8,Europe/Paris
Lanvéoc,48.2861,-4.4624,France,FR-E,125.4,Europe/Paris
Crévoux,44.5475,6.6069,France,FR-U,3.2,Europe/Paris
Cocherel,49.0214,3.103,France,FR-J,80.7,Europe/Paris
Vacquenoux,48.484,7.1812,France,FR-GES,223.6,Europe/Paris
Saint-Pierre-lès-Nemours,48.2673,2.6797,France,FR-J,253,Europe/Paris
Les Chaises,48.5696,1.3973,France,FR-F,46.7,Europe/Paris
Le Vernet-Saint-Esprit,42.7109,2.8872,France,FR-OCC,1830,Europe/Paris
Goas,43.815,0.9622,France,FR-OCC,18.7,Europe/Paris
Les Chaises,48.6449,1.6916,France,FR-J,68.9,Europe/Paris
Les Chaises,48.5486,3.4526,France,FR-J,41.6,Europe/Paris
Les Chaises,48.4859,3.3568,France,FR-J,39.2,Europe/Paris
Les Chaises,48.5657,3.2266,France,FR-J,5.9,Europe/Paris
Montcléra,44.6199,1.2105,France,FR-OCC,12.5,Europe/Paris
Étroussat,46.2186,3.2211,France,FR-ARA,60,Europe/Paris
Mauvaisin,43.3546,1.5497,France,FR-OCC,19.3,Europe/Paris
Noeux-lès-Auxi,50.2355,2.174,France,FR-HDF,27.3,Europe/Paris
Avelesges,49.9165,1.9366,France,FR-HDF,9.4,Europe/Paris
Riom-ès-Montagnes,45.2821,2.6597,France,FR-ARA,56.3,Europe/Paris
Herm,43.8074,-1.1445,France,FR-NAQ,22.7,Europe/Paris
Saint-Martin-aux-Chartrains,49.3133,0.1615,France,FR-NOR,79.7,Europe/Paris
Le Sourn,48.0427,-2.9891,France,FR-E,130.6,Europe/Paris
Violles,43.7282,-0.1541,France,FR-OCC,19.8,Europe/Paris
Le Bâtiment,47.935,-2.8913,France,FR-E,37.4,Europe/Paris
Saint-André-de-Cubzac,44.9948,-0.4465,France,FR-NAQ,485.2,Europe/Paris
Saint-Philbert-du-Peuple,47.3929,-0.0441,France,FR-R,86.7,Europe/Paris
Bouafles,49.2131,1.388,France,FR-NOR,59,Europe/Paris
Montgaillard,42.9354,1.6335,France,FR-OCC,169.9,Europe/Paris
Montgaillard,43.1244,0.1081,France,FR-OCC,79.7,Europe/Paris
Montgaillard,43.9089,1.5948,France,FR-OCC,23.6,Europe/Paris
Montgaillard,43.933,0.8766,France,FR-OCC,11.3,Europe/Paris
Montgaillard,42.9105,2.6246,France,FR-OCC,3.6,Europe/Paris
Le Villard de Sangot,45.5574,6.693,France,FR-ARA,51,Europe/Paris
Sagelat,44.7835,1.0156,France,FR-NAQ,50.9,Europe/Paris
Jouancy,48.2429,3.3079,France,FR-BFC,70.9,Europe/Paris
Jouancy,47.6827,4.0328,France,FR-BFC,9.7,Europe/Paris
Regnéville-sur-Mer,49.0081,-1.5533,France,FR-NOR,86,Europe/Paris
Rapevache,45.5036,0.627,France,FR-NAQ,49.9,Europe/Paris
Rocroi,49.9244,4.5211,France,FR-GES,47.2,Europe/Paris
Oust,42.875,1.2152,France,FR-OCC,29.1,Europe/Paris
Nisnisan,48.487,-2.2101,France,FR-E,46.7,Europe/Paris
Wihr-en-Plaine,48.0838,7.4102,France,FR-GES,538.9,Europe/Paris
Saint-Grégoire-du-Vièvre,49.2439,0.6348,France,FR-NOR,38.5,Europe/Paris
La Forge,46.4078,2.2231,France,FR-NAQ,13.3,Europe/Paris
Saint-Cyr-les-Colons,47.7419,3.7384,France,FR-BFC,13.8,Europe/Paris
Simandres,45.6196,4.8731,France,FR-ARA,194.4,Europe/Paris
Ronchaux,47.0518,5.8983,France,FR-BFC,21.1,Europe/Paris
Pont-du-Rastel,44.3147,3.9671,France,FR-OCC,51.7,Europe/Paris
Mirville,49.6089,0.4425,France,FR-NOR,67.9,Europe/Paris
Faverolles-et-Coëmy,49.2355,3.7931,France,FR-GES,99.8,Europe/Paris
Thiville,48.026,1.3747,France,FR-F,13.1,Europe/Paris
Aboën,45.4135,4.1322,France,FR-ARA,46.1,Europe/Paris
Talence,44.8,-0.584,France,FR-NAQ,5419.4,Europe/Paris
Commeaux,48.7854,-0.1139,France,FR-NOR,21.6,Europe/Paris
Chelles,49.3543,3.0345,France,FR-HDF,57.9,Europe/Paris
Pardellières,45.8,2.5667,France,FR-ARA,6.4,Europe/Paris
Lempzours,45.361,0.8183,France,FR-NAQ,16.7,Europe/Paris
Leurville,48.3277,5.3834,France,FR-GES,8.6,Europe/Paris
Ouestreville,48.306,1.9809,France,FR-J,145.9,Europe/Paris
Pradeaux,46.3167,2.2333,France,FR-NAQ,25.8,Europe/Paris
Brunvillers-la-Motte,49.55,2.45,France,FR-HDF,49.4,Europe/Paris
Connelles,49.2561,1.273,France,FR-NOR,52.6,Europe/Paris
Bougy,49.1103,-0.5248,France,FR-NOR,218.7,Europe/Paris
Mesnil-sous-Vienne,49.3857,1.667,France,FR-NOR,28.9,Europe/Paris
Montureux-et-Prantigny,47.5015,5.6379,France,FR-BFC,19,Europe/Paris
Les Grisonnières,48.3,0.95,France,FR-F,19.7,Europe/Paris
Gagnac-sur-Garonne,43.7009,1.3756,France,FR-OCC,884.2,Europe/Paris
Le Bauchet,47.4017,3.4629,France,FR-BFC,13.2,Europe/Paris
Sode,42.8159,0.6154,France,FR-OCC,38.4,Europe/Paris
Foucart,49.6127,0.5966,France,FR-NOR,87.8,Europe/Paris
Saint-Pierre-Chérignat,45.9743,1.608,France,FR-NAQ,7.1,Europe/Paris
Grange Bertin,48.0903,3.4446,France,FR-BFC,22.5,Europe/Paris
Bouray-sur-Juine,48.5198,2.3,France,FR-J,261.5,Europe/Paris
Chataignol,45.5499,1.4137,France,FR-NAQ,17.5,Europe/Paris
Gouttières,46.0625,2.7692,France,FR-ARA,13,Europe/Paris
Chantérac,45.1732,0.4452,France,FR-NAQ,31.3,Europe/Paris
Madranges,45.475,1.7904,France,FR-NAQ,15.8,Europe/Paris
Saint-Péver,48.4814,-3.1025,France,FR-E,28.1,Europe/Paris
Ormoy-le-Davien,49.1954,2.9594,France,FR-HDF,101.8,Europe/Paris
Pont de Labarde,45.0209,-0.6401,France,FR-NAQ,133.4,Europe/Paris
Valdampierre,49.304,2.0526,France,FR-HDF,106.9,Europe/Paris
Le Beau-Fournier,49.8543,0.9242,France,FR-NOR,190.9,Europe/Paris
Saint-Porchaire,45.821,-0.7841,France,FR-NAQ,108,Europe/Paris
Saint-Porchaire,46.8548,-0.4518,France,FR-NAQ,104.9,Europe/Paris
Saint-Denis-sur-Coise,45.6141,4.4252,France,FR-ARA,51.8,Europe/Paris
Neuilly-sur-Marne,48.8537,2.549,France,FR-J,4904.1,Europe/Paris
Lusignan-Grand,44.2435,0.5166,France,FR-NAQ,78.8,Europe/Paris
Vieux Molini,41.8575,8.8069,France,FR-H,43,Europe/Paris
Auquemesnil,49.946,1.3328,France,FR-NOR,53.8,Europe/Paris
Saint-Jean-du-Cardonnay,49.5046,1.0114,France,FR-NOR,177.5,Europe/Paris
Vaucluse,44.3773,5.6114,France,FR-U,4.6,Europe/Paris
Unterste Muehle,49.0214,7.2635,France,FR-GES,79.1,Europe/Paris
La Chapelle-au-Riboul,48.318,-0.4345,France,FR-R,41.7,Europe/Paris
Pont à Chaussy,49.1096,6.3825,France,FR-GES,208.7,Europe/Paris
Saint-Fiacre,48.5667,-3.8167,France,FR-E,381.4,Europe/Paris
Saint-Fiacre,48.2833,-4.5333,France,FR-E,93.9,Europe/Paris
Saint-Fiacre,48.0167,-3.4833,France,FR-E,82.3,Europe/Paris
Saint-Fiacre,48.4616,-3.0604,France,FR-E,25.3,Europe/Paris
Randol,45.6422,3.0665,France,FR-ARA,22.8,Europe/Paris
La Bretonne,49.6667,-1.2601,France,FR-NOR,1195.2,Europe/Paris
Saint-Fiacre,48.9233,2.9556,France,FR-J,137.1,Europe/Paris
Saint-Fiacre,48.4865,2.2088,France,FR-J,100.2,Europe/Paris
Crosey-le-Petit,47.3517,6.4836,France,FR-BFC,13.5,Europe/Paris
Champlost,48.0267,3.669,France,FR-BFC,35.5,Europe/Paris
Cassagnabère-Tournas,43.2278,0.7909,France,FR-OCC,16.8,Europe/Paris
Vinabineau,46.5137,2.2277,France,FR-F,10.2,Europe/Paris
Lamaud,45.1497,0.3678,France,FR-NAQ,40.8,Europe/Paris
Liffol-le-Grand,48.3177,5.5812,France,FR-GES,67.2,Europe/Paris
Saint-Laurent-du-Verdon,43.724,6.0676,France,FR-U,11.1,Europe/Paris
Friburge,45.4548,6.7604,France,FR-ARA,9.3,Europe/Paris
Pluherlin,47.6964,-2.3633,France,FR-E,43.6,Europe/Paris
Juvrecourt,48.7428,6.5641,France,FR-GES,11.4,Europe/Paris
Angoulins,46.1046,-1.1098,France,FR-NAQ,484.1,Europe/Paris
Refourgan,45.2715,3.8154,France,FR-ARA,20.5,Europe/Paris
Les Bouneaux,46.6087,0.6001,France,FR-NAQ,51.9,Europe/Paris
Molines-en-Champsaur,44.75,6.1167,France,FR-U,3.7,Europe/Paris
Sommaing,50.2664,3.5004,France,FR-HDF,160.6,Europe/Paris
Le Glas,45.63,4.6218,France,FR-ARA,123.8,Europe/Paris
Vouciennes,48.8462,4.4511,France,FR-GES,43.3,Europe/Paris
Le Potin,47.2958,3.2433,France,FR-BFC,12.6,Europe/Paris
Le Moulin,47.2831,3.2103,France,FR-BFC,12.6,Europe/Paris
Bourget,44.9505,4.3719,France,FR-ARA,61.2,Europe/Paris
Giens,43.04,6.1383,France,FR-U,428.7,Europe/Paris
Corsept,47.2768,-2.0606,France,FR-R,132.5,Europe/Paris
L’Aireau,47.3069,0.4016,France,FR-F,111.8,Europe/Paris
Bosc-Asselin,49.5505,1.4483,France,FR-NOR,28.8,Europe/Paris
Courtines,45.0082,2.9809,France,FR-ARA,33.6,Europe/Paris
Navilly,46.9347,5.145,France,FR-BFC,42,Europe/Paris
Onnex,45.9411,6.1681,France,FR-ARA,724.1,Europe/Paris
Vendresse-Beaulne,49.4277,3.6671,France,FR-HDF,14.9,Europe/Paris
Buzet-sur-Tarn,43.7791,1.6328,France,FR-OCC,102.4,Europe/Paris
Le Mesnil,49.5073,0.5369,France,FR-NOR,627.3,Europe/Paris
Le Mesnil,49.4957,1.1613,France,FR-NOR,312.9,Europe/Paris
Le Mesnil,49.2179,1.2437,France,FR-NOR,228.2,Europe/Paris
Le Mesnil,49.4606,0.9566,France,FR-NOR,122.2,Europe/Paris
Le Mesnil,49.5449,0.8103,France,FR-NOR,94.3,Europe/Paris
Le Mesnil,49.5889,0.6895,France,FR-NOR,81.8,Europe/Paris
Le Mesnil,49.5651,1.0962,France,FR-NOR,76.2,Europe/Paris
Le Mesnil,49.5001,1.7063,France,FR-NOR,73.6,Europe/Paris
Le Mesnil,49.6279,1.476,France,FR-NOR,36.8,Europe/Paris
Le Mesnil,48.7004,0.697,France,FR-NOR,22.5,Europe/Paris
Neulles,45.5037,-0.4174,France,FR-NAQ,25.1,Europe/Paris
Molincourt,49.1832,1.6355,France,FR-NOR,39.4,Europe/Paris
Niederlarg,47.5178,7.2104,France,FR-GES,116.7,Europe/Paris
Margat,44.2629,2.1844,France,FR-OCC,19.5,Europe/Paris
Coignières,48.7501,1.9208,France,FR-J,609.4,Europe/Paris
Fadainville,48.5831,1.4135,France,FR-F,33.7,Europe/Paris
Chambon-Sainte-Croix,46.3554,1.7744,France,FR-NAQ,14.3,Europe/Paris
Le Caroff,48.2272,-3.6308,France,FR-E,25.8,Europe/Paris
Varennes-sur-Allier,46.3132,3.4015,France,FR-ARA,141.9,Europe/Paris
Sancy,47.1726,3.4483,France,FR-BFC,4.1,Europe/Paris
Épinay-sur-Orge,48.6734,2.3107,France,FR-J,2332.2,Europe/Paris
La Halte d’Eyrenville,44.7042,0.5634,France,FR-NAQ,19.8,Europe/Paris
Saint-Martin-des-Champs,48.5766,-3.8453,France,FR-E,323.3,Europe/Paris
Reugny,47.4821,0.8847,France,FR-F,55.8,Europe/Paris
Saint-Martin-des-Champs,47.1566,2.9178,France,FR-F,27.4,Europe/Paris
Valfin-sur-Valouse,46.3698,5.5198,France,FR-BFC,9.2,Europe/Paris
Cabriès,43.4412,5.38,France,FR-U,226,Europe/Paris
Sorges,45.3074,0.8735,France,FR-NAQ,29.4,Europe/Paris
Tours-en-Vimeu,50.0352,1.6839,France,FR-HDF,75.7,Europe/Paris
Auxillac,44.4669,3.2279,France,FR-OCC,21.3,Europe/Paris
Méon,47.495,0.1202,France,FR-R,18.4,Europe/Paris
Saint-Viaud,47.2563,-2.0186,France,FR-R,72.1,Europe/Paris
Saulnières,48.6595,1.272,France,FR-F,64.8,Europe/Paris
Tréloup,49.0774,3.6068,France,FR-HDF,51.1,Europe/Paris
Saulnières,47.9158,-1.5877,France,FR-E,71.7,Europe/Paris
La Charonnerie,47.253,1.8362,France,FR-F,25,Europe/Paris
Saint-Amand-les-Eaux,50.4472,3.4308,France,FR-HDF,483.3,Europe/Paris
Dracy-lès-Couches,46.8887,4.5773,France,FR-BFC,19.7,Europe/Paris
Saint-Quentin-la-Poterie,44.0454,4.4411,France,FR-OCC,127.9,Europe/Paris
Saint-Sauveur-Gouvernet,44.3364,5.3505,France,FR-ARA,10.4,Europe/Paris
Solmet,47.638,3.3221,France,FR-BFC,20.8,Europe/Paris
Saint-Laurent-de-Muret,44.6027,3.2066,France,FR-OCC,3.9,Europe/Paris
Saint-Symphorien-sous-Chomérac,44.7194,4.7044,France,FR-ARA,86.9,Europe/Paris
Quesmy,49.6339,3.0594,France,FR-HDF,46.4,Europe/Paris
Ramoulu,48.226,2.2918,France,FR-F,23.4,Europe/Paris
Champvalins,47.848,2.0057,France,FR-F,94.5,Europe/Paris
Marivaux,49.5193,3.1229,France,FR-HDF,65.3,Europe/Paris
Blanzaguet,44.9223,1.5324,France,FR-OCC,28.7,Europe/Paris
Romaniargues,45.2478,2.9153,France,FR-ARA,15.7,Europe/Paris
Berbiguières,44.8341,1.0423,France,FR-NAQ,35.1,Europe/Paris
Vroville,48.2866,6.1725,France,FR-GES,20.5,Europe/Paris
Berraute,43.3256,-0.9851,France,FR-NAQ,26,Europe/Paris
Vaures,45.102,3.7235,France,FR-ARA,36.3,Europe/Paris
Roussare,45.1536,1.8034,France,FR-NAQ,19.6,Europe/Paris
Forstheim,48.8987,7.7138,France,FR-GES,110.5,Europe/Paris
La Paize,45.0189,0.5931,France,FR-NAQ,25.2,Europe/Paris
Brie-sous-Barbezieux,45.4255,-0.0404,France,FR-NAQ,17.6,Europe/Paris
Fonteneau,46.5968,2.1603,France,FR-F,7.9,Europe/Paris
Aimons,45.25,2.3167,France,FR-ARA,45.6,Europe/Paris
Farémont,48.6898,4.7224,France,FR-GES,51,Europe/Paris
Saint-Félix-Lauragais,43.449,1.8876,France,FR-OCC,25.8,Europe/Paris
Saint-Anastase,48.75,0.2,France,FR-NOR,7.9,Europe/Paris
Les Mousseaux,49.1916,1.3493,France,FR-NOR,311.9,Europe/Paris
Aguessac,44.1567,3.098,France,FR-OCC,47.6,Europe/Paris
La Forclaz,46.3213,6.6141,France,FR-ARA,59.4,Europe/Paris
Maloza,45.3555,5.5531,France,FR-ARA,206.9,Europe/Paris
Sablons,45.0257,-0.1937,France,FR-NAQ,113.2,Europe/Paris
Sainte-Marguerite,44.8,6.5667,France,FR-U,34.3,Europe/Paris
Sainte-Marguerite,44.1802,5.1893,France,FR-U,12.2,Europe/Paris
Ichy,48.2026,2.5471,France,FR-J,18.9,Europe/Paris
Saint-Laurent-en-Brionnais,46.2735,4.2586,France,FR-BFC,25.9,Europe/Paris
Neuville-en-Ferrain,50.7484,3.1568,France,FR-HDF,1653.4,Europe/Paris
Le Beauchot,47.3303,3.2637,France,FR-BFC,10.5,Europe/Paris
Condat-sur-Trincou,45.3827,0.7086,France,FR-NAQ,32.7,Europe/Paris
Joucas,43.926,5.252,France,FR-U,40.2,Europe/Paris
Apach,49.461,6.3742,France,FR-GES,272.6,Europe/Luxembourg
Felletin,45.8841,2.1733,France,FR-NAQ,131.7,Europe/Paris
Bromeilles,48.1866,2.497,France,FR-F,23.9,Europe/Paris
Pouligny-Saint-Pierre,46.681,1.0388,France,FR-F,23.1,Europe/Paris
Lacroix,49.354,6.4599,France,FR-GES,53.2,Europe/Paris
Pomiès,45.1833,2.3333,France,FR-ARA,27.3,Europe/Paris
Bouzonville,49.2922,6.5353,France,FR-GES,288.7,Europe/Paris
Bouzonville,49.153,5.775,France,FR-GES,20.3,Europe/Paris
Bazancourt,49.3656,4.1705,France,FR-GES,169.2,Europe/Paris
Porté-Puymorens,42.5482,1.8312,France,FR-OCC,2.4,Europe/Paris
Guillot,44.4511,0.4554,France,FR-NAQ,15,Europe/Paris
Varennes-sur-Seine,48.373,2.9257,France,FR-J,356.6,Europe/Paris
Rasteau,44.2307,4.9869,France,FR-U,44.5,Europe/Paris
Briollay,47.5645,-0.5081,France,FR-R,193.9,Europe/Paris
Grand Chalier,45.7333,1.1667,France,FR-NAQ,44.7,Europe/Paris
Jésonville,48.13,6.1105,France,FR-GES,20.8,Europe/Paris
Roussi,44.6552,2.5134,France,FR-OCC,7.2,Europe/Paris
Les Pinthières,48.702,1.5693,France,FR-F,51.3,Europe/Paris
Petit-Landau,47.7309,7.5193,France,FR-GES,46.5,Europe/Paris
Le Mesnil-Auzouf,48.9799,-0.7524,France,FR-NOR,37.7,Europe/Paris
Guibermesnil,49.8426,1.8403,France,FR-HDF,21,Europe/Paris
Jarnac-Champagne,45.5591,-0.4004,France,FR-NAQ,34.4,Europe/Paris
Écouflant,47.5308,-0.5283,France,FR-R,291.2,Europe/Paris
Gilley,47.6906,5.6365,France,FR-GES,7.6,Europe/Paris
Les Buges,45.673,2.7855,France,FR-ARA,11.4,Europe/Paris
Marcenod,45.571,4.4832,France,FR-ARA,80,Europe/Paris
Le Bourget,46.4667,5.6667,France,FR-BFC,73.3,Europe/Paris
Oberlauterbach,48.9494,8.0696,France,FR-GES,110.8,Europe/Paris
Les Rairies,48.9249,-0.9163,France,FR-NOR,41,Europe/Paris
Les Frênes,49.5631,0.2026,France,FR-NOR,774.2,Europe/Paris
Sauzeries Basses,44.0445,6.3587,France,FR-U,3.5,Europe/Paris
Chémeré,47.1206,-1.9175,France,FR-R,69.6,Europe/Paris
Limons,45.9735,3.4454,France,FR-ARA,49.6,Europe/Paris
Crégy-lès-Meaux,48.9765,2.8748,France,FR-J,1198.2,Europe/Paris
Casarimacciu,41.989,8.9067,France,FR-H,72.1,Europe/Paris
Porto Vecchiaccio,41.662,9.3275,France,FR-H,64.2,Europe/Paris
Goutibert,45.9018,0.3828,France,FR-NAQ,14.3,Europe/Paris
Saint-Maurice sur Loire,45.9647,4.0085,France,FR-ARA,48.7,Europe/Paris
Fontaine-Bellenger,49.1861,1.2616,France,FR-NOR,222.5,Europe/Paris
Branne,44.8305,-0.1866,France,FR-NAQ,534.5,Europe/Paris
Flaittes,45.5021,3.7198,France,FR-ARA,27,Europe/Paris
Fontaine-lès-Vervins,49.8528,3.9004,France,FR-HDF,53.6,Europe/Paris
Saint-Avit-le-Pauvre,45.9963,2.0444,France,FR-NAQ,15.3,Europe/Paris
La Férée,49.7631,4.3028,France,FR-GES,8.4,Europe/Paris
La Gaillarde,49.8383,0.8637,France,FR-NOR,56.4,Europe/Paris
La Chamba,45.7556,3.7574,France,FR-ARA,11.1,Europe/Paris
Saint-Geniès,44.9943,1.251,France,FR-NAQ,29.5,Europe/Paris
Varaize,45.9232,-0.4227,France,FR-NAQ,28.8,Europe/Paris
Troisgots,49.0113,-1.0734,France,FR-NOR,33.9,Europe/Paris
Bouloc,43.7804,1.4054,France,FR-OCC,266.6,Europe/Paris
Bouloc,44.1532,2.867,France,FR-OCC,11,Europe/Paris
Tourriers,45.7976,0.192,France,FR-NAQ,123.6,Europe/Paris
Verrières,43.8514,2.8188,France,FR-OCC,17.3,Europe/Paris
Verrières,44.2019,3.0584,France,FR-OCC,8.7,Europe/Paris
Verrières,44.8699,3.6275,France,FR-OCC,7.1,Europe/Paris
Jonzais,46.3926,2.8234,France,FR-ARA,33.1,Europe/Paris
Buschwiller,47.5588,7.5074,France,FR-GES,256.5,Europe/Paris
Fontenilles-d’Aigueparse,44.6458,1.0013,France,FR-NAQ,12,Europe/Paris
Langon,44.5528,-0.2499,France,FR-NAQ,650,Europe/Paris
Teneze,46.3519,1.7025,France,FR-NAQ,20.5,Europe/Paris
Viesly,50.1535,3.4624,France,FR-HDF,133.4,Europe/Paris
Galapian,44.2987,0.4133,France,FR-NAQ,37.4,Europe/Paris
Neuhaeusel,48.8236,8.0856,France,FR-GES,165.2,Europe/Berlin
La Chapelle-Bayvel,49.273,0.4026,France,FR-NOR,82.7,Europe/Paris
Le Coteau,46.0192,4.0923,France,FR-ARA,1275.2,Europe/Paris
Locquirec,48.6926,-3.6459,France,FR-E,222.7,Europe/Paris
Chamberaud,46.0494,2.0457,France,FR-NAQ,13.5,Europe/Paris
La Motte Moreau,47.9872,2.1114,France,FR-F,97.7,Europe/Paris
Anzex,44.2839,0.1657,France,FR-NAQ,12.7,Europe/Paris
Pierre-Châtel,44.9574,5.7745,France,FR-ARA,113.8,Europe/Paris
Vendoeuvres,46.8019,1.3578,France,FR-F,12.1,Europe/Paris
Esse,46.0317,0.7207,France,FR-NAQ,15.9,Europe/Paris
Lieurac,42.9816,1.7894,France,FR-OCC,23,Europe/Paris
Saint-Vallier,46.6411,4.3711,France,FR-BFC,356.6,Europe/Paris
Le Petit Buisson,48.4171,2.9955,France,FR-J,106.1,Europe/Paris
Fayet,44.3553,3.5704,France,FR-OCC,19.3,Europe/Paris
Fayet,43.8036,2.9474,France,FR-OCC,14,Europe/Paris
Le Pinet,45.2281,4.2385,France,FR-ARA,202.3,Europe/Paris
Le Pinet,45.2989,4.1642,France,FR-ARA,196.7,Europe/Paris
Le Pinet,45.1233,5.2624,France,FR-ARA,109.8,Europe/Paris
Le Pinet,45.376,3.8688,France,FR-ARA,17.1,Europe/Paris
Bax,43.2264,1.2882,France,FR-OCC,15.2,Europe/Paris
Montmurat,44.6292,2.2014,France,FR-ARA,27.9,Europe/Paris
Lafeuillade-en-Vézie,44.7893,2.4601,France,FR-ARA,38.5,Europe/Paris
La Ribierre,45.8422,2.0401,France,FR-NAQ,5.1,Europe/Paris
Tanaron,44.2,6.2667,France,FR-U,7,Europe/Paris
Quatre-Champs,49.4454,4.7684,France,FR-GES,17.2,Europe/Paris
Saint-Éloy-les-Tuileries,45.4469,1.2925,France,FR-NAQ,17.1,Europe/Paris
Saint-Agnan-sur-Sarthe,48.6101,0.4263,France,FR-NOR,23.1,Europe/Paris
Essarts,48.5044,1.7633,France,FR-F,84.1,Europe/Paris
Chantocelle,46.391,3.1305,France,FR-ARA,18,Europe/Paris
Nannay,47.2621,3.1911,France,FR-BFC,10.3,Europe/Paris
Doumely-Bégny,49.6293,4.3023,France,FR-GES,13.1,Europe/Paris
Diant,48.283,2.9932,France,FR-J,20.5,Europe/Paris
Beaurepaire,46.9105,-1.0894,France,FR-R,107.3,Europe/Paris
La Chaise,46.4435,0.8931,France,FR-NAQ,107.8,Europe/Paris
La Chaise,46.5914,0.782,France,FR-NAQ,14.7,Europe/Paris
La Chaise,45.9833,1.8,France,FR-NAQ,8.3,Europe/Paris
Peyrefitte-sur-l’Hers,43.2478,1.8287,France,FR-OCC,13.4,Europe/Paris
Marly-le-Roi,48.8667,2.0833,France,FR-J,1817.2,Europe/Paris
Beaurepaire,48.3902,1.0888,France,FR-F,16.9,Europe/Paris
Audignies,50.2856,3.8137,France,FR-HDF,201.8,Europe/Paris
Montarmin,46.7786,3.9863,France,FR-BFC,45.2,Europe/Paris
Berentzwiller,47.5861,7.3843,France,FR-GES,52.2,Europe/Paris
Grainville-Langannerie,49.0113,-0.2741,France,FR-NOR,139.9,Europe/Paris
Chêne-Godon,49.0518,1.5023,France,FR-J,66,Europe/Paris
Bellacaud,44.9657,0.4619,France,FR-NAQ,19.6,Europe/Paris
Hères,43.5535,-0.0003,France,FR-OCC,19.7,Europe/Paris
Dambelin,47.3742,6.6744,France,FR-BFC,43.8,Europe/Paris
Asnières-sur-Vègre,47.8883,-0.2339,France,FR-R,36,Europe/Paris
Estables,44.6667,3.4167,France,FR-OCC,19,Europe/Paris
La Pordais,47.2674,-2.0093,France,FR-R,72.5,Europe/Paris
Faucigny,46.1194,6.3589,France,FR-ARA,114.4,Europe/Paris
Gercy,49.8145,3.866,France,FR-HDF,43,Europe/Paris
Saint-Geneys-près-Saint-Paulien,45.1616,3.824,France,FR-ARA,20.7,Europe/Paris
Robersart,50.1567,3.6421,France,FR-HDF,86.2,Europe/Paris
Rumersheim,48.692,7.6357,France,FR-GES,157.2,Europe/Paris
Genevreuille,47.6721,6.3772,France,FR-BFC,30.5,Europe/Paris
Vinsobres,44.3333,5.062,France,FR-ARA,32.5,Europe/Paris
Caubous,43.2469,0.4797,France,FR-OCC,10.5,Europe/Paris
Caubous,42.8508,0.5223,France,FR-OCC,2.3,Europe/Paris
Saint-Jacques,45.3275,5.5631,France,FR-ARA,393.4,Europe/Paris
Saint-Jacques,46.6,3.55,France,FR-ARA,13.9,Europe/Paris
Île-d’Aix,46.0123,-1.1748,France,FR-NAQ,131.5,Europe/Paris
Beulle,48.9167,1.8833,France,FR-J,227.1,Europe/Paris
Vauchelles-lès-Domart,50.0562,2.0546,France,FR-HDF,35.4,Europe/Paris
Saint-Lager,46.1116,4.6729,France,FR-ARA,120.2,Europe/Paris
Pencran,48.4376,-4.2343,France,FR-E,371.2,Europe/Paris
Herbeuville,49.0466,5.6371,France,FR-GES,27.9,Europe/Paris
Courcelles,48.0973,2.3173,France,FR-F,47.7,Europe/Paris
Béchereau,48.6511,1.689,France,FR-J,55.6,Europe/Paris
Village de la Judée,49.6283,-1.6859,France,FR-NOR,589.3,Europe/Paris
Courcelles,48.4101,3.0553,France,FR-J,21.5,Europe/Paris
Millery,48.8166,6.13,France,FR-GES,103.3,Europe/Paris
Verdèse,42.393,9.3646,France,FR-H,26.8,Europe/Paris
L’Aunay,48.7327,0.3759,France,FR-NOR,21.9,Europe/Paris
Bernes,50.8393,1.6954,France,FR-HDF,61.1,Europe/Paris
Bernes,49.9098,3.0997,France,FR-HDF,34.4,Europe/Paris
Chaumes de la Bigotte,47.4667,3.85,France,FR-BFC,9.4,Europe/Paris
Les Dunes d’Oye,50.9995,2.0681,France,FR-HDF,140.8,Europe/Paris
La Ville-aux-Bois-lès-Dizy,49.6618,3.992,France,FR-HDF,17.2,Europe/Paris
Le Coudray,48.0667,0.55,France,FR-R,93.8,Europe/Paris
Le Coudray,47.5583,-1.8393,France,FR-R,51.1,Europe/Paris
Eppe-Sauvage,50.1189,4.1781,France,FR-HDF,18.4,Europe/Paris
Le Coudray,48.2012,2.738,France,FR-J,213.9,Europe/Paris
Le Coudray,49.0323,1.7089,France,FR-J,156.9,Europe/Paris
Le Coudray,48.1823,2.8637,France,FR-J,74.8,Europe/Paris
Le Coudray,48.3064,2.802,France,FR-J,36.5,Europe/Paris
Outrebois,49.05,1.1333,France,FR-NOR,735.2,Europe/Paris
Petite Serenne,44.5333,6.7667,France,FR-U,1.2,Europe/Paris
Bubertré,48.5966,0.6013,France,FR-NOR,10.7,Europe/Paris
Torjonas,45.8064,5.3299,France,FR-ARA,38.1,Europe/Paris
Kutzenhausen,48.9335,7.8543,France,FR-GES,140.5,Europe/Paris
Maizerais,48.9069,5.8032,France,FR-GES,26.7,Europe/Paris
Limeil-Brévannes,48.7464,2.4883,France,FR-J,2769.7,Europe/Paris
Saint-Maurice-Thizouaille,47.8333,3.362,France,FR-BFC,94.3,Europe/Paris
Cuves,48.0945,5.4374,France,FR-GES,5.3,Europe/Paris
Porh-Pus,47.6906,-3.3578,France,FR-E,346.7,Europe/Paris
Aiguèze,44.3029,4.556,France,FR-OCC,40.7,Europe/Paris
Chezelles,46.3636,2.6185,France,FR-ARA,539,Europe/Paris
Saint-Etienne-Roilaye,49.3532,3.0191,France,FR-HDF,44,Europe/Paris
Savignac,44.3588,1.9652,France,FR-OCC,42.4,Europe/Paris
Les Chéris,48.6361,-1.2567,France,FR-NOR,49,Europe/Paris
Lanarvily,48.5525,-4.3883,France,FR-E,94.4,Europe/Paris
Arnoncourt-sur-Apance,48.0007,5.7009,France,FR-GES,7.8,Europe/Paris
La Nouzière,46.1699,2.3341,France,FR-NAQ,9.6,Europe/Paris
Savignargues,43.9628,4.084,France,FR-OCC,90.8,Europe/Paris
Wattignies-la-Victoire,50.2015,4.012,France,FR-HDF,45.7,Europe/Paris
Collias,43.9537,4.477,France,FR-OCC,52.7,Europe/Paris
Betour,45.6597,1.2222,France,FR-NAQ,47.6,Europe/Paris
Prouray,47.0266,0.688,France,FR-F,34.6,Europe/Paris
La Mothe-Achard,46.6179,-1.659,France,FR-R,264.3,Europe/Paris
Mérignat,46.0696,5.4377,France,FR-ARA,59,Europe/Paris
Le Lauzet,44.7667,6.6167,France,FR-U,22.6,Europe/Paris
Le Lauzet,45.0147,6.4639,France,FR-U,8.6,Europe/Paris
Champguyon-Bas,48.7667,3.55,France,FR-GES,17.6,Europe/Paris
La Nerthe,43.3788,5.295,France,FR-U,1210.8,Europe/Paris
Dordives,48.1425,2.7678,France,FR-F,222.3,Europe/Paris
Goastalan,48.2963,-4.1187,France,FR-E,99,Europe/Paris
La Quaisne,49.5534,1.4096,France,FR-NOR,31.7,Europe/Paris
Dierre,47.3451,0.9575,France,FR-F,61.9,Europe/Paris
La Polle,49.638,-1.6366,France,FR-NOR,2310.3,Europe/Paris
Chatte,45.1425,5.2822,France,FR-ARA,106.7,Europe/Paris
Azereix,43.209,-0.008,France,FR-OCC,66.6,Europe/Paris
Kergoat,48.4744,-4.4826,France,FR-E,190.1,Europe/Paris
Kergoat,48.1138,-4.1692,France,FR-E,39.9,Europe/Paris
Kergoat,48.0717,-3.5977,France,FR-E,27.3,Europe/Paris
La Farlède,43.1687,6.0432,France,FR-U,984.6,Europe/Paris
Bar-lès-Buzancy,49.4329,4.9418,France,FR-GES,14.8,Europe/Paris
Mardigny,48.9766,6.0852,France,FR-GES,55.8,Europe/Paris
Cambremer,49.1519,0.0476,France,FR-NOR,45.1,Europe/Paris
Tillenay,47.1789,5.3505,France,FR-BFC,139.5,Europe/Paris
Sainte-Orse,45.2034,1.0753,France,FR-NAQ,16.5,Europe/Paris
Val Profonde,48.0648,3.3545,France,FR-BFC,127.1,Europe/Paris
Courteilles,48.775,-0.1994,France,FR-NOR,43.8,Europe/Paris
Courteilles,48.7345,1.0111,France,FR-NOR,23.7,Europe/Paris
Pouillon,43.6049,-0.9963,France,FR-NAQ,57.9,Europe/Paris
Menetou-Couture,47.0453,2.9137,France,FR-F,12.3,Europe/Paris
Lanriec,47.8695,-3.8831,France,FR-E,461.5,Europe/Paris
Rochebrune,44.337,5.2456,France,FR-ARA,3.4,Europe/Paris
Orny,49.0233,6.2454,France,FR-GES,66.2,Europe/Paris
Auxonne,47.1925,5.3873,France,FR-BFC,192.3,Europe/Paris
Carantec,48.6677,-3.9142,France,FR-E,345.9,Europe/Paris
Moidrey,48.5752,-1.5054,France,FR-NOR,83,Europe/Paris
Dury,49.8473,2.2707,France,FR-HDF,123.6,Europe/Paris
Dury,50.2469,3.0074,France,FR-HDF,68.3,Europe/Paris
Dury,49.7508,3.1302,France,FR-HDF,25.6,Europe/Paris
Thubeauville,50.5891,1.7827,France,FR-HDF,37.8,Europe/Paris
La Chapelle-d’Aunainville,48.4248,1.8132,France,FR-F,38.8,Europe/Paris
Bressolles,45.8664,5.0951,France,FR-ARA,100.9,Europe/Paris
Bressolles,46.5309,3.3165,France,FR-ARA,45.7,Europe/Paris
Larchantel,48.3825,-4.5557,France,FR-E,2719,Europe/Paris
Boisyvon,48.805,-1.1288,France,FR-NOR,30.7,Europe/Paris
Cenne-Monestiés,43.3318,2.1172,France,FR-OCC,47.8,Europe/Paris
Teinte,46.8323,3.3906,France,FR-BFC,18.3,Europe/Paris
Cruciata,41.8408,8.784,France,FR-H,39,Europe/Paris
Les Roux,44.579,5.9609,France,FR-U,32.3,Europe/Paris
Tournavaux,49.8713,4.7859,France,FR-GES,116.8,Europe/Paris
La Bergerie,48.349,1.1419,France,FR-F,21.8,Europe/Paris
La Bergerie,46.9595,2.8567,France,FR-F,8.7,Europe/Paris
Oimpuits,48.2328,2.1652,France,FR-F,16.8,Europe/Paris
Douneau,43.727,5.1599,France,FR-U,225.7,Europe/Paris
Yenne,45.702,5.7616,France,FR-ARA,135.6,Europe/Paris
Richeville,48.8153,1.5594,France,FR-F,68.5,Europe/Paris
Clergoux,45.2787,1.9724,France,FR-NAQ,23.5,Europe/Paris
Les Paroches,48.9072,5.516,France,FR-GES,46.5,Europe/Paris
Briotte,48.3996,3.3341,France,FR-J,25.1,Europe/Paris
Thourotte,49.4759,2.8821,France,FR-HDF,1095.1,Europe/Paris
Chauffour-lès-Étréchy,48.5041,2.1696,France,FR-J,31.3,Europe/Paris
Aulnay-la-Rivière,48.1905,2.3675,France,FR-F,43.2,Europe/Paris
Chaumard,47.1443,3.9127,France,FR-BFC,13,Europe/Paris
Tressignaux,48.6168,-2.9837,France,FR-E,134.9,Europe/Paris
Ormersviller,49.1358,7.3233,France,FR-GES,72.7,Europe/Paris
La Chapelle-Onzerain,48.0332,1.6122,France,FR-F,18.2,Europe/Paris
Antin,43.334,0.2893,France,FR-OCC,13.3,Europe/Paris
Saint-Laurent-Rochefort,45.7734,3.9244,France,FR-ARA,16.4,Europe/Paris
Frespech,44.31,0.825,France,FR-NAQ,23.8,Europe/Paris
Sourdun,48.5369,3.352,France,FR-J,78.4,Europe/Paris
Saint-Maurice-sur-Moselle,47.8589,6.8248,France,FR-GES,43.6,Europe/Paris
La Poussinière,48.1582,2.0485,France,FR-F,40,Europe/Paris
Nouailhas,45.7565,1.1738,France,FR-NAQ,63.5,Europe/Paris
Criviller,48.4657,6.7534,France,FR-GES,185.8,Europe/Paris
Asfeld,49.4698,4.1174,France,FR-GES,49.6,Europe/Paris
Mont-Saint-Aignan,49.4631,1.0936,France,FR-NOR,2133.6,Europe/Paris
Quettreville-sur-Sienne,48.968,-1.4678,France,FR-NOR,96.2,Europe/Paris
Valay,47.3382,5.6379,France,FR-BFC,46.9,Europe/Paris
Brévands,49.3308,-1.1907,France,FR-NOR,26,Europe/Paris
Jaucourt,48.2592,4.6478,France,FR-GES,29.7,Europe/Paris
Etcharry,43.323,-0.928,France,FR-NAQ,18,Europe/Paris
Lovagny,45.9038,6.0328,France,FR-ARA,255.9,Europe/Paris
Issus,43.4245,1.5061,France,FR-OCC,73.9,Europe/Paris
Les Cottereaux,47.4109,2.7249,France,FR-F,13.7,Europe/Paris
Montbrun-des-Corbières,43.1985,2.6841,France,FR-OCC,32.4,Europe/Paris
Trôo,47.7779,0.7927,France,FR-F,38.6,Europe/Paris
Voisines,47.8597,5.1836,France,FR-GES,4.8,Europe/Paris
Exeidioux,45.6312,1.6819,France,FR-NAQ,6.1,Europe/Paris
Pezou,47.8674,1.1428,France,FR-F,84.5,Europe/Paris
Lucenay,47.4132,4.287,France,FR-BFC,10.2,Europe/Paris
Kerbach,49.1668,6.9655,France,FR-GES,267.6,Europe/Paris
La Racinière,48.7309,0.6692,France,FR-NOR,63.9,Europe/Paris
Saint-André,42.5513,2.9726,France,FR-OCC,339.2,Europe/Paris
Saint-André,43.5627,0.8558,France,FR-OCC,19.3,Europe/Paris
Saint-André,43.727,0.2765,France,FR-OCC,17.3,Europe/Paris
Saint-André,43.9333,2.46,France,FR-OCC,13,Europe/Paris
Saint-André,43.2733,0.8516,France,FR-OCC,12.2,Europe/Paris
Saint-André,42.9636,2.1261,France,FR-OCC,11.2,Europe/Paris
Malons-et-Elze,44.4167,4.0229,France,FR-OCC,3.5,Europe/Paris
Gélacourt,48.4814,6.7338,France,FR-GES,32.8,Europe/Paris
Doulan,44.6571,2.0105,France,FR-OCC,85.7,Europe/Paris
Malvalette,45.3549,4.1586,France,FR-ARA,45.1,Europe/Paris
Vauzelle,48.0255,-1.2853,France,FR-E,61.7,Europe/Paris
Gez-ez-Angles,43.0904,0.0233,France,FR-OCC,12.4,Europe/Paris
La Chevade,45.1303,2.8414,France,FR-ARA,12.7,Europe/Paris
Tarazone,42.5,8.8088,France,FR-H,39.7,Europe/Paris
Bergonne,45.5057,3.2204,France,FR-ARA,62.3,Europe/Paris
Ortholès,44.3872,2.6323,France,FR-OCC,53.1,Europe/Paris
Pourly,47.6244,3.8177,France,FR-BFC,29.8,Europe/Paris
Le Pont-de-Beauvoisin,45.5341,5.6666,France,FR-ARA,567.6,Europe/Paris
Saint-Baussant,48.8934,5.7928,France,FR-GES,8.2,Europe/Paris
Cuttura,46.4124,5.812,France,FR-BFC,57.5,Europe/Paris
Aubercy,48.9933,5.045,France,FR-GES,16.4,Europe/Paris
Coubjours,45.2471,1.2571,France,FR-NAQ,16,Europe/Paris
Rouilly-Saint-Loup,48.2638,4.1492,France,FR-GES,52,Europe/Paris
Paissy,49.4254,3.6973,France,FR-HDF,9.8,Europe/Paris
Saint-Hilaire-le-Grand,49.1715,4.4646,France,FR-GES,8.5,Europe/Paris
Les Coupes-de-Pouligny,46.9627,3.6825,France,FR-BFC,5.1,Europe/Paris
Pecorile,42.9454,9.3657,France,FR-H,12.1,Europe/Paris
Chardenoux,44.7659,3.4511,France,FR-OCC,4.2,Europe/Paris
Rochepleiou,48.0167,-3.4667,France,FR-E,66.6,Europe/Paris
Suzoy,49.5822,2.9461,France,FR-HDF,110.5,Europe/Paris
Tully,50.0859,1.5175,France,FR-HDF,386.7,Europe/Paris
Perdreauville,48.7966,1.6815,France,FR-J,122.6,Europe/Paris
Perdreauville,48.9646,1.6293,France,FR-J,55.6,Europe/Paris
Mittelhausbergen,48.6138,7.6919,France,FR-GES,1211.1,Europe/Paris
Lengronne,48.9338,-1.3821,France,FR-NOR,37.3,Europe/Paris
Valderoure,43.797,6.7097,France,FR-U,17.5,Europe/Paris
Pierrecourt,49.8977,1.6608,France,FR-NOR,51.3,Europe/Paris
Luscan,43.0119,0.6226,France,FR-OCC,22.3,Europe/Paris
Troisfontaines,48.6738,7.1197,France,FR-GES,102,Europe/Paris
Troisfontaines,48.5418,5.0214,France,FR-GES,10.6,Europe/Paris
Envaud,45.75,1.2167,France,FR-NAQ,81.7,Europe/Paris
Lestomble,45.628,2.7319,France,FR-ARA,24.3,Europe/Paris
Saffré,47.5014,-1.5788,France,FR-R,68.8,Europe/Paris
Pescadoires,44.5047,1.1571,France,FR-OCC,59.5,Europe/Paris
Argens,44.0445,6.5241,France,FR-U,10.4,Europe/Paris
Bacourt,48.9269,6.4071,France,FR-GES,32,Europe/Paris
Ventuile,46.2833,2.929,France,FR-ARA,9.1,Europe/Paris
Lavallot,48.421,-4.4241,France,FR-E,317.8,Europe/Paris
Ségalas,44.5873,0.5309,France,FR-NAQ,13.1,Europe/Paris
La Tuilerie,47.9017,3.7188,France,FR-BFC,60.5,Europe/Paris
La Tuilerie,48.0115,3.3673,France,FR-BFC,58.7,Europe/Paris
La Tuilerie,47.9538,3.788,France,FR-BFC,39.1,Europe/Paris
La Tuilerie,47.4996,3.9789,France,FR-BFC,27.5,Europe/Paris
La Tuilerie,48.0619,3.4367,France,FR-BFC,22.5,Europe/Paris
La Tuilerie,47.2327,3.1321,France,FR-BFC,19.6,Europe/Paris
La Tuilerie,47.4473,6.4567,France,FR-BFC,13.7,Europe/Paris
La Tuilerie,48.1051,3.761,France,FR-BFC,12.7,Europe/Paris
La Tuilerie,46.9425,3.4743,France,FR-BFC,10.3,Europe/Paris
Kervaugam,47.7192,-3.3849,France,FR-E,1080.5,Europe/Paris
Chez Maroc,45.6208,0.5269,France,FR-NAQ,24.7,Europe/Paris
Wannehain,50.5685,3.2679,France,FR-HDF,290.2,Europe/Brussels
Bonnevaux-le-Prieuré,47.1328,6.1683,France,FR-BFC,85.1,Europe/Paris
Neuflieux,49.6194,3.1603,France,FR-HDF,61.8,Europe/Paris
Rosenwiller,48.7685,7.4516,France,FR-GES,255.5,Europe/Paris
Rosenwiller,48.5048,7.439,France,FR-GES,143.9,Europe/Paris
Wattebléry,49.9489,1.6577,France,FR-HDF,36.8,Europe/Paris
Foussemagne,47.6359,7.005,France,FR-BFC,260.8,Europe/Paris
Oeyregave,43.5336,-1.0981,France,FR-NAQ,57.2,Europe/Paris
Fonville,48.6671,1.4165,France,FR-F,45.8,Europe/Paris
Kernevez Saint-Christophe,48.3488,-4.2183,France,FR-E,61.3,Europe/Paris
Chamberet,45.5835,1.7198,France,FR-NAQ,18.9,Europe/Paris
Grand Guichy,47.2599,3.156,France,FR-BFC,10.2,Europe/Paris
Gontaud-de-Nogaret,44.4564,0.2948,France,FR-NAQ,56.1,Europe/Paris
Doubs,46.9277,6.3522,France,FR-BFC,314.2,Europe/Paris
Bichancourt,49.5795,3.2178,France,FR-HDF,139.7,Europe/Paris
Saint-Ouen,49.7394,0.5298,France,FR-NOR,156.8,Europe/Paris
Saint-Ouen,49.7278,1.7096,France,FR-NOR,16,Europe/Paris
Cernay,47.8063,7.1754,France,FR-GES,655.6,Europe/Paris
Tremblay-lès-Gonesse,48.9811,2.556,France,FR-J,1594.8,Europe/Paris
Rimplas,44.064,7.1311,France,FR-U,5.2,Europe/Paris
L’Hôtellerie,48.1784,-0.9947,France,FR-R,66.6,Europe/Paris
Gunsbach,48.0478,7.176,France,FR-GES,166.8,Europe/Paris
Saint-Bénigne,46.4391,4.9717,France,FR-ARA,82.5,Europe/Paris
Doumis,45.2333,2.25,France,FR-ARA,10.9,Europe/Paris
Saint-Gondon,47.6979,2.5422,France,FR-F,52.7,Europe/Paris
Molles,46.1115,3.5584,France,FR-ARA,33.7,Europe/Paris
L’Hôtellerie,48.2285,-1.1186,France,FR-E,40.1,Europe/Paris
Brault,46.6833,2.6167,France,FR-F,18.9,Europe/Paris
Argentières,48.6534,2.8676,France,FR-J,161.7,Europe/Paris
Marvejols,44.5544,3.2904,France,FR-OCC,385.5,Europe/Paris
Louzy,47.0118,-0.1869,France,FR-NAQ,71.6,Europe/Paris
Hiesse,46.0557,0.5912,France,FR-NAQ,9.6,Europe/Paris
Bruguières,43.7249,1.4107,France,FR-OCC,621.7,Europe/Paris
Les Charteries,47.2169,1.815,France,FR-F,11.9,Europe/Paris
Spincourt,49.3306,5.6668,France,FR-GES,33.7,Europe/Paris
Trelagot,47.3287,-2.0801,France,FR-R,141.5,Europe/Paris
Tanus,44.1014,2.3161,France,FR-OCC,30.6,Europe/Paris
Les Essarts,47.7333,0.72,France,FR-F,25.1,Europe/Paris
Ville-sur-Saulx,48.7144,5.0615,France,FR-GES,66.2,Europe/Paris
Bercloux,45.8354,-0.4711,France,FR-NAQ,49.6,Europe/Paris
Épluques,49.6284,0.9399,France,FR-NOR,74.7,Europe/Paris
Laparrinié,43.6776,2.2024,France,FR-OCC,23.2,Europe/Paris
Gâvres,47.6945,-3.3536,France,FR-E,346.7,Europe/Paris
Le Fougneron,47.3879,2.0855,France,FR-F,51.5,Europe/Paris
Les Cités,49.4446,5.8336,France,FR-GES,114,Europe/Paris
Lougé-sur-Maire,48.6933,-0.2246,France,FR-NOR,29.2,Europe/Paris
Sainte-Mondane,44.8451,1.3365,France,FR-NAQ,29.2,Europe/Paris
Radon,48.5025,0.1028,France,FR-NOR,53.7,Europe/Paris
Saint-Saëns,49.673,1.2853,France,FR-NOR,92.9,Europe/Paris
Saint-Georges-sur-Fontaine,49.5439,1.1801,France,FR-NOR,103.2,Europe/Paris
Coise,45.5282,6.1439,France,FR-ARA,123.7,Europe/Paris
Coise,45.6137,4.4734,France,FR-ARA,87.6,Europe/Paris
Les Aulneaux,48.4364,0.3319,France,FR-R,17.1,Europe/Paris
Saint-Eugienne,48.7361,-1.278,France,FR-NOR,42.9,Europe/Paris
Couffé,47.3919,-1.2915,France,FR-R,64.1,Europe/Paris
Amfreville-sous-les-Monts,49.305,1.2602,France,FR-NOR,90,Europe/Paris
Ty-Aryun,48.3667,-3.9167,France,FR-E,17.1,Europe/Paris
Vintilhac,44.0759,1.2451,France,FR-OCC,89.6,Europe/Paris
Ognes,48.6994,3.9057,France,FR-GES,9.2,Europe/Paris
Le Vert,46.0929,-0.3955,France,FR-NAQ,10.7,Europe/Paris
Le Vert,45.0908,2.042,France,FR-NAQ,6.6,Europe/Paris
La Bertomarie,45.0998,0.7473,France,FR-NAQ,56.4,Europe/Paris
Labeaume,44.4488,4.3071,France,FR-ARA,63.3,Europe/Paris
Pugnier,45.2084,3.8152,France,FR-ARA,13.9,Europe/Paris
Saint-Malô-du-Bois,46.9289,-0.9,France,FR-R,119.7,Europe/Paris
Micoulaud,45.0167,4.3333,France,FR-ARA,17,Europe/Paris
Rethel,49.5098,4.3674,France,FR-GES,397.6,Europe/Paris
Vardiola,41.6937,9.3861,France,FR-H,20,Europe/Paris
Les Vivons,46.738,2.5928,France,FR-F,25.6,Europe/Paris
Putanges,48.7655,-0.2438,France,FR-NOR,107.7,Europe/Paris
Belvédère,44.015,7.3208,France,FR-U,10.5,Europe/Paris
Piré-sur-Seiche,48.01,-1.4309,France,FR-E,68.3,Europe/Paris
Manneville-la-Raoult,49.3755,0.3161,France,FR-NOR,77.3,Europe/Paris
Gavrelle,50.3296,2.8874,France,FR-HDF,68.1,Europe/Paris
Pinay,47.1027,3.1353,France,FR-BFC,32.3,Europe/Paris
Le Plessis-Léger,47.8988,-1.6331,France,FR-E,65.4,Europe/Paris
Larnaud,46.7111,5.4546,France,FR-BFC,52.8,Europe/Paris
Francheville,45.7364,4.7636,France,FR-ARA,1596.3,Europe/Paris
Les Caris,44.4826,1.1867,France,FR-OCC,103.9,Europe/Paris
Les Friches,47.4896,-1.4819,France,FR-R,126.5,Europe/Paris
Froyelles,50.2285,1.9278,France,FR-HDF,42.2,Europe/Paris
Kerdroc,48.6032,-4.3828,France,FR-E,93,Europe/Paris
Kerifloc’h,48.2819,-4.5345,France,FR-E,93.9,Europe/Paris
Stival,48.0854,-2.9919,France,FR-E,556.9,Europe/Paris
Seyresse,43.686,-1.0649,France,FR-NAQ,489.1,Europe/Paris
Saint-Ouen-les-Vignes,47.4675,0.9948,France,FR-F,56.8,Europe/Paris
Kerfalher,47.4656,-2.481,France,FR-E,93.8,Europe/Paris
Arzenc-de-Randon,44.6621,3.6321,France,FR-OCC,3.1,Europe/Paris
Lignéville,48.1667,5.9515,France,FR-GES,23.2,Europe/Paris
Meslay,48.9569,-0.3963,France,FR-NOR,40.1,Europe/Paris
Vallecalle,42.5987,9.3398,France,FR-H,15.3,Europe/Paris
La Paquelais,47.3324,-1.6961,France,FR-R,108.7,Europe/Paris
Donchery,49.6958,4.8742,France,FR-GES,86.7,Europe/Paris
Léglantiers,49.496,2.5345,France,FR-HDF,79.6,Europe/Paris
Velesmes,47.4191,5.7018,France,FR-BFC,25.2,Europe/Paris
Verrey-sous-Salmaise,47.4379,4.6663,France,FR-BFC,38.8,Europe/Paris
Bures,48.563,0.3987,France,FR-NOR,20.9,Europe/Paris
Signy-le-Petit,49.9028,4.2799,France,FR-GES,33,Europe/Paris
Poussan,43.4886,3.6703,France,FR-OCC,180.2,Europe/Paris
Rubigny,49.6861,4.1942,France,FR-GES,16.4,Europe/Paris
Brigueuil,45.9534,0.8603,France,FR-NAQ,23.4,Europe/Paris
Céaux-en-Couhé,46.3213,0.2305,France,FR-NAQ,32.8,Europe/Paris
Beauzelle,43.665,1.3758,France,FR-OCC,1135.6,Europe/Paris
Montlahuc,44.534,5.4521,France,FR-ARA,3.3,Europe/Paris
Salvizinet,45.762,4.2725,France,FR-ARA,62.5,Europe/Paris
Oussières,46.9072,5.5918,France,FR-BFC,29.8,Europe/Paris
Bourré,47.3476,1.2269,France,FR-F,141.6,Europe/Paris
Bernieulles,50.5546,1.7738,France,FR-HDF,31.7,Europe/Paris
Viroflay,48.8008,2.1618,France,FR-J,4267.4,Europe/Paris
Audresselles,50.824,1.5923,France,FR-HDF,145,Europe/Paris
Lamalou-les-Bains,43.5976,3.0798,France,FR-OCC,401.6,Europe/Paris
Gurunhuel,48.516,-3.2996,France,FR-E,19.5,Europe/Paris
Berd’huis,48.3456,0.7436,France,FR-NOR,93.7,Europe/Paris
Perles,42.7443,1.7864,France,FR-OCC,11.1,Europe/Paris
Courmononcle,48.2278,3.6757,France,FR-GES,15.4,Europe/Paris
Saint-Georges-les-Landes,46.3421,1.3365,France,FR-NAQ,14.9,Europe/Paris
Talan,44.443,-0.088,France,FR-NAQ,17.9,Europe/Paris
Véel,48.7694,5.1169,France,FR-GES,117.8,Europe/Paris
Saint-Thomas,43.5148,1.0822,France,FR-OCC,46.1,Europe/Paris
Barberey-aux-Moines,48.3483,4.0243,France,FR-GES,95.2,Europe/Paris
Bois-Roulot,46.6833,4.3833,France,FR-BFC,1172.6,Europe/Paris
Marnes,46.8568,-0.0193,France,FR-NAQ,13.1,Europe/Paris
Mairie de Saint-Dizier,46.15,2.15,France,FR-NAQ,13.3,Europe/Paris
Balesta,43.2004,0.5674,France,FR-OCC,26.8,Europe/Paris
La Sauvin,47.5362,3.3577,France,FR-BFC,15.4,Europe/Paris
Saint-Géraud,44.621,0.1532,France,FR-NAQ,13.4,Europe/Paris
Haut Coudreau,46.6949,1.2557,France,FR-F,10.7,Europe/Paris
Larressingle,43.9447,0.3099,France,FR-OCC,25.6,Europe/Paris
Jouglas,43.084,5.8425,France,FR-U,1323.8,Europe/Paris
Les Toulerons,47.7689,2.8927,France,FR-F,26.9,Europe/Paris
L’Hermet,44.3499,3.7257,France,FR-OCC,3.1,Europe/Paris
Beaugou,45.0789,1.4336,France,FR-NAQ,32.7,Europe/Paris
Bessy-sur-Cure,47.6211,3.7411,France,FR-BFC,20.2,Europe/Paris
Arleux-en-Gohelle,50.3632,2.8721,France,FR-HDF,151.7,Europe/Paris
Saint-Jean-de-Luz,43.3906,-1.6591,France,FR-NAQ,785.6,Europe/Paris
Baigneaux,44.7231,-0.1977,France,FR-NAQ,53.4,Europe/Paris
Saint-Quentin-lès-Beaurepaire,47.627,-0.1081,France,FR-R,45.2,Europe/Paris
Hanviller,49.1042,7.4594,France,FR-GES,17,Europe/Paris
Saint-Prouant,46.7576,-0.9564,France,FR-R,121.1,Europe/Paris
Ottmarsheim,47.788,7.5078,France,FR-GES,75.1,Europe/Paris
Bodingar,48.3476,-4.0164,France,FR-E,9.8,Europe/Paris
Beaurain,50.1799,3.5526,France,FR-HDF,216.3,Europe/Paris
Virazeil,44.507,0.2199,France,FR-NAQ,88.2,Europe/Paris
Fresnoy-lès-Roye,49.7371,2.7756,France,FR-HDF,43.7,Europe/Paris
Crépainville,48.0972,1.2834,France,FR-F,447.2,Europe/Paris
Châtonnay,46.4256,5.5445,France,FR-BFC,24.4,Europe/Paris
Saint-Leu,46.7306,4.5008,France,FR-BFC,100.6,Europe/Paris
La Tache,44.9667,1.1333,France,FR-NAQ,17.5,Europe/Paris
La Tâche,45.8683,0.3541,France,FR-NAQ,16.2,Europe/Paris
Tocqueville-en-Caux,49.7795,0.9078,France,FR-NOR,43.4,Europe/Paris
Rainsars,50.0707,3.9907,France,FR-HDF,35.1,Europe/Paris
La Vergne,46.9446,2.2554,France,FR-F,42.6,Europe/Paris
Le Grand Maleray,46.9283,2.2122,France,FR-F,16.9,Europe/Paris
Saint-Myon,45.9934,3.1307,France,FR-ARA,73.1,Europe/Paris
Les Cardaires,43.9715,6.1314,France,FR-U,2.1,Europe/Paris
Les Chazeaux,45.7,2.2167,France,FR-NAQ,13.9,Europe/Paris
Pérols,43.5647,3.9503,France,FR-OCC,1425.7,Europe/Paris
Vauxbons,47.883,5.1573,France,FR-GES,5.5,Europe/Paris
Montagny-lès-Seurre,47.0235,5.2527,France,FR-BFC,15.7,Europe/Paris
Saint-Pal-de-Mons,45.2463,4.2742,France,FR-ARA,81.6,Europe/Paris
Ousse,43.2832,-0.2672,France,FR-NAQ,371.7,Europe/Paris
Messinhac,45.1412,4.0736,France,FR-ARA,61.9,Europe/Paris
Ferrières-lès-Scey,47.6549,6.0047,France,FR-BFC,27.5,Europe/Paris
Dommarie,48.4311,6.0282,France,FR-GES,14.3,Europe/Paris
Cayroux,44.6157,0.7362,France,FR-NAQ,21.6,Europe/Paris
Vaussujean,46.3871,1.5478,France,FR-NAQ,26.7,Europe/Paris
Colombes,48.9236,2.2522,France,FR-J,10906.1,Europe/Paris
Blessey,47.4896,4.6861,France,FR-BFC,3.3,Europe/Paris
Mortagne-du-Nord,50.5035,3.4535,France,FR-HDF,649.4,Europe/Paris
Péchaud,44.7304,1.6842,France,FR-OCC,5.7,Europe/Paris
Saint-Ouen,47.814,1.0807,France,FR-F,331,Europe/Paris
Treignat,46.3486,2.3406,France,FR-ARA,14.4,Europe/Paris
Daudevie,45.1275,1.3808,France,FR-NAQ,168.9,Europe/Paris
Kerlinou,48.0855,-3.5182,France,FR-E,23.6,Europe/Paris
Mas Davet,44.8403,1.7152,France,FR-OCC,22.2,Europe/Paris
Chénour,45.8241,1.4312,France,FR-NAQ,49.5,Europe/Paris
Bracquemont,49.9397,1.1452,France,FR-NOR,188.3,Europe/Paris
Haute Court,43.2979,6.429,France,FR-U,24.1,Europe/Paris
Vinzan,45.699,2.0632,France,FR-NAQ,12.3,Europe/Paris
Saint-Ouen,48.9123,2.3342,France,FR-J,33225.1,Europe/Paris
Église-Neuve-d’Issac,44.9817,0.4274,France,FR-NAQ,7.9,Europe/Paris
Curières,44.6527,2.8656,France,FR-OCC,6.4,Europe/Paris
Fourillette,46.2752,3.1536,France,FR-ARA,13.3,Europe/Paris
Torteval,49.1333,-0.7333,France,FR-NOR,19,Europe/Paris
Mercus,42.8796,1.6303,France,FR-OCC,81.3,Europe/Paris
Chadet,46.6128,2.5446,France,FR-F,7.5,Europe/Paris
Échainvilliers,48.212,2.3525,France,FR-F,32.7,Europe/Paris
Tréguennec,47.8913,-4.3325,France,FR-E,38.9,Europe/Paris
Chuffilly-Roche,49.4469,4.6084,France,FR-GES,11.5,Europe/Paris
Montherlant,49.2782,2.049,France,FR-HDF,32.1,Europe/Paris
Grand Pré,44.5,6.3167,France,FR-U,18.7,Europe/Paris
Saint-Julien-sur-Calonne,49.2915,0.2285,France,FR-NOR,21.7,Europe/Paris
Monthurel,49.0225,3.5467,France,FR-HDF,41.8,Europe/Paris
Les Bois-le-Roi,48.1859,3.6814,France,FR-GES,16.8,Europe/Paris
Le Migron,47.2554,-1.916,France,FR-R,63.7,Europe/Paris
Le Puch,44.717,-0.0983,France,FR-NAQ,56,Europe/Paris
Haucourt-en-Cambrésis,50.1038,3.342,France,FR-HDF,59.7,Europe/Paris
Fieux,44.0909,0.4236,France,FR-NAQ,26.8,Europe/Paris
Courpalay,48.6472,2.9558,France,FR-J,101.8,Europe/Paris
Fontlobines,45.4488,3.8018,France,FR-ARA,9.3,Europe/Paris
Bannoncourt,48.9586,5.4998,France,FR-GES,18.5,Europe/Paris
Moncel-sur-Seille,48.7648,6.4212,France,FR-GES,39.8,Europe/Paris
Baffour,45.3387,3.695,France,FR-ARA,51.6,Europe/Paris
Réveillon,48.4788,0.5597,France,FR-NOR,35.9,Europe/Paris
Falkwiller,47.6808,7.1341,France,FR-GES,55.2,Europe/Paris
Saint-Michel,48.0413,-2.9688,France,FR-E,237.1,Europe/Paris
Luttenbach-près-Munster,48.0317,7.1171,France,FR-GES,94.7,Europe/Paris
Le Beugnon,46.5819,-0.5,France,FR-NAQ,18,Europe/Paris
Chaudefontaine,47.3392,6.1597,France,FR-BFC,35.6,Europe/Paris
Soyria,46.5613,5.7366,France,FR-BFC,118.9,Europe/Paris
Bretteville-sur-Laize,49.0447,-0.3264,France,FR-NOR,171.4,Europe/Paris
Savigné,46.1591,0.3209,France,FR-NAQ,35.8,Europe/Paris
Lignières-la-Carelle,48.4352,0.1759,France,FR-R,62.9,Europe/Paris
Saint-Jean-aux-Bois,49.3473,2.9052,France,FR-HDF,10.7,Europe/Paris
Gizeux,47.3935,0.1945,France,FR-F,21.3,Europe/Paris
Ceyras,43.6453,3.4577,France,FR-OCC,208.5,Europe/Paris
Auffains,48.1958,1.6401,France,FR-F,15.8,Europe/Paris
Margut,49.5821,5.2599,France,FR-GES,98.6,Europe/Paris
Soucelles,47.5695,-0.4205,France,FR-R,166.5,Europe/Paris
Paillange,45.4502,3.8651,France,FR-ARA,12.4,Europe/Paris
Villers-Pater,47.4676,6.1611,France,FR-BFC,8.5,Europe/Paris
Beaurepaire,46.6986,3.5362,France,FR-BFC,18.7,Europe/Paris
Jurans,44.4167,6.1833,France,FR-U,10.6,Europe/Paris
Beire-le-Châtel,47.4132,5.2049,France,FR-BFC,46.6,Europe/Paris
Le Mas du Puy,45.8333,1.1333,France,FR-NAQ,152.4,Europe/Paris
Montigny-sur-Canne,46.9327,3.6557,France,FR-BFC,5.1,Europe/Paris
Aidling,49.3003,6.5596,France,FR-GES,288.7,Europe/Paris
La Goulafrière,48.9486,0.4369,France,FR-NOR,12.8,Europe/Paris
Villeneuve-du-Bosc,43.0005,1.6562,France,FR-OCC,103.5,Europe/Paris
Le Vaulmier,45.1893,2.5665,France,FR-ARA,3.8,Europe/Paris
Fréménil,48.5651,6.7119,France,FR-GES,76,Europe/Paris
Pruzilly,46.2577,4.698,France,FR-BFC,60.6,Europe/Paris
Ételfay,49.6619,2.6195,France,FR-HDF,47.4,Europe/Paris
Saint-Martin-Belle-Roche,46.3831,4.8554,France,FR-BFC,325.4,Europe/Paris
Mosny,48.0725,1.4865,France,FR-F,22.5,Europe/Paris
Manonville,48.8304,5.9114,France,FR-GES,28,Europe/Paris
Biscay,43.4022,-1.0583,France,FR-NAQ,15.1,Europe/Paris
Canet,43.6019,3.4907,France,FR-OCC,660.5,Europe/Paris
Canet,43.2284,2.8469,France,FR-OCC,109.8,Europe/Paris
Saucède,43.2691,-0.686,France,FR-NAQ,21.4,Europe/Paris
Villemareuil,48.9212,2.9714,France,FR-J,37.6,Europe/Paris
Domrémy-la-Canne,49.2975,5.693,France,FR-GES,10.8,Europe/Paris
Longaulnay,48.31,-1.9409,France,FR-E,112.2,Europe/Paris
